stop_id,stop_code,stop_name,stop_lat,stop_lon,zone_id,stop_url,location_type,parent_station,stop_desc,stop_timezone,wheelchair_boarding,level_id,platform_code
101125-5924,5924.0,"Askatasunaren Hiribidea, 28",43.319479,-1.982405,,,0,,,,0,,
101125-461,461.0,"Urbieta Kalea, 20",43.317314,-1.98307,,,0,,,,0,,
101125-217,217.0,Mendeurrenaren Plaza - Centenario,43.31267,-1.980299,,,0,,,,0,,
101125-198,198.0,"Antso Jakitunaren Hiribidea, 26",43.308804,-1.979845,,,0,,,,0,,
101125-302,302.0,AÃ±orga Hiribidea - AÃ±orga Txiki I,43.289462,-1.998215,,,0,,,,0,,
101125-303,303.0,"AÃ±orga Hiribidea, 36 - AÃ±orga I",43.285301,-2.000082,,,0,,,,0,,
101125-358,358.0,"Taberna-Berri Cincuentenario, AÃ±orga",43.283414,-2.001568,,,0,,,,0,,
101125-359,359.0,"Errekalde Hiribidea, 51 - Tren Geltokia",43.278778,-2.006906,,,0,,,,0,,
101125-361,361.0,Donostia Etorbidea -Sasoeta Atsobakar,43.27249,-2.018124,,,0,,,,0,,
101125-383,383.0,"Kale Nagusia, 4",43.269707,-2.020128,,,0,,,,0,,
101125-212,212.0,"Kale Nagusia, 41 - Zumaburu",43.266091,-2.019533,,,0,,,,0,,
101125-384,384.0,"Kale Nagusia, 70",43.261674,-2.017854,,,0,,,,0,,
101125-353,353.0,"Zubieta Kalea, 14",43.317308,-1.9854,,,0,,,,0,,
101125-297,297.0,Mirakontxa Pasealekua-LA Perla,43.315255,-1.988456,,,0,,,,0,,
101125-675,675.0,"Zumalakarregi Hiribidea, 8",43.314844,-2.002175,,,0,,,,0,,
101125-355,355.0,Tolosa Hiribidea - Zubimusu Parkea,43.312862,-2.006104,,,0,,,,0,,
101125-346,346.0,Tolosa Hiribidea - Magisteritza,43.311295,-2.00925,,,0,,,,0,,
101125-421,421.0,"Tolosa Hiribidea, 70- Unibertsitatea",43.307049,-2.008727,,,0,,,,0,,
101125-356,356.0,"Tolosa Hiribidea, 112",43.304908,-2.006814,,,0,,,,0,,
101125-205,205.0,Tolosa Hiribidea 138,43.302238,-2.004219,,,0,,,,0,,
101125-301,301.0,"Camino DE Zubiberri, Casa Oramil (Donostia)",43.298895,-2.000846,,,0,,,,0,,
101125-408,408.0,Kale Nagusia - Oztaran,43.260995,-2.017458,,,0,,,,0,,
101125-215,215.0,"Kale Nagusia, 40 - Zumaburu",43.26628,-2.01948,,,0,,,,0,,
101125-409,409.0,"Kale Nagusia, 5",43.269616,-2.019981,,,0,,,,0,,
101125-372,372.0,Donostia Etorbidea - Sasoeta Oriamendi,43.272249,-2.0183,,,0,,,,0,,
101125-375,375.0,Errekalde Hiribidea - Tren Geltokia,43.278536,-2.007045,,,0,,,,0,,
101125-376,376.0,"Taberna-Berri Cincuentenario, AÃ°orga (Donostia)",43.283394,-2.001334,,,0,,,,0,,
101125-342,342.0,"AÃ±orga Hiribidea, 59 - AÃ±orga Ii",43.285716,-1.999139,,,0,,,,0,,
101125-343,343.0,AÃ±orga Hiribidea - AÃ±orga Txiki Ii,43.289485,-1.997733,,,0,,,,0,,
101125-202,202.0,Tolosa Hiribidea - Amerika Plaza,43.302278,-2.003675,,,0,,,,0,,
101125-377,377.0,Tolosa Hiribidea - Lorea,43.305021,-2.006343,,,0,,,,0,,
101125-203,203.0,"Tolosa Hiribidea, 77 - Unibertsitateak",43.307182,-2.008416,,,0,,,,0,,
101125-4038,4038.0,"Tolosa Hiribidea, 13 - Magisteritza",43.312275,-2.00699,,,0,,,,0,,
101125-380,380.0,"Zumalakarregi Hiribidea, 11 - Esklabak",43.314931,-2.001779,,,0,,,,0,,
101125-348,348.0,"SAN Martin Kalea, 57",43.315514,-1.987132,,,0,,,,0,,
101125-4270,4270.0,"Urbieta, 28",43.31697,-1.982779,,,0,,,,0,,
101125-382,382.0,"Etxaide Kalea, 3",43.31996,-1.979856,,,0,,,,0,,
101125-260,260.0,"Antso Jakitunaren Hiribidea, 33",43.308197,-1.97951,,,0,,,,0,,
101125-715,715.0,Easo Plaza/Plaza Easo (Donostia),43.313618,-1.98154,,,0,,,,0,,
101125-351,351.0,Begiristain Doktorea - Ospitalea Ii,43.293078,-1.970419,,,0,,,,0,,
101125-3940,3940.0,"Begiristain Doktorea, 218 - Onkologikoa",43.29142,-1.974293,,,0,,,,0,,
101125-3943,3943.0,Miramon Pasealekua - Poliklinika I,43.29059,-1.980088,,,0,,,,0,,
101125-430,430.0,Escaleras,43.270734,-2.044658,,,0,,,,0,,
101125-1944,1944.0,SAN Inazio,43.271591,-2.05348,,,0,,,,0,,
101125-385,385.0,"Zirkuitu Ibilbidea, 12 - Basaundi",43.256834,-2.018437,,,0,,,,0,,
101125-386,386.0,Oria Hiribidea,43.25352,-2.019451,,,0,,,,0,,
101125-433,433.0,Errasti,43.272795,-2.07414,,,0,,,,0,,
101125-370,370.0,"Hipodromo Hiribidea, 4",43.26926,-2.02149,,,0,,,,0,,
101125-363,363.0,Cruce Hipodromo,43.267651,-2.024017,,,0,,,,0,,
101125-364,364.0,"Irigoien Kalea ,16 - Zubieta",43.270425,-2.032574,,,0,,,,0,,
101125-365,365.0,Zubieta Eskolak (Donostia),43.269499,-2.032737,,,0,,,,0,,
101125-447,447.0,Errasti,43.272376,-2.07454,,,0,,,,0,,
101125-448,448.0,Galardi,43.271277,-2.070145,,,0,,,,0,,
101125-451,451.0,Escaleras,43.270629,-2.045017,,,0,,,,0,,
101125-1263,1263.0,Arrapide Pasealekua - Bugati,43.253844,-2.022513,,,0,,,,0,,
101125-7484,7484.0,"Oria Hiribidea, 7 - Eliza",43.253573,-2.019302,,,0,,,,0,,
101125-407,407.0,"Zirkuitu Ibilbidea, 17 -Basaundi",43.256851,-2.018239,,,0,,,,0,,
101125-349,349.0,Miramon Pasealekua -Poliklinika Ii,43.290551,-1.979818,,,0,,,,0,,
101125-1781,1781.0,"Begiristain Doktorea, 121 - Onkologikoa",43.291657,-1.973537,,,0,,,,0,,
101125-350,350.0,"Begiristain Doktorea, 115 - Ospitalea",43.292889,-1.970385,,,0,,,,0,,
101125-366,366.0,Barrio Zubieta (Donostia),43.27058,-2.033853,,,0,,,,0,,
101125-367,367.0,Irigoien Kalea - Zubieta,43.270389,-2.032501,,,0,,,,0,,
101125-368,368.0,Puente Entrada Hipodromo DE Lasarte Donostia,43.267614,-2.023821,,,0,,,,0,,
101125-369,369.0,Hipodromo Hiribidea,43.269213,-2.021331,,,0,,,,0,,
101125-381,381.0,"SAN Martin Kalea, Artzai ONA Eliza Aurrean",43.317439,-1.981945,,,0,,,,0,,
101125-393,393.0,"Karrika Kalea, 2",43.209096,-2.030504,,,0,,,,0,,
101125-396,396.0,"Aita Larramendi Kalea, 19 - Zumea Plaza",43.212752,-2.024179,,,0,,,,0,,
101125-398,398.0,"Kaleberria, 10 - Renfe",43.216451,-2.020809,,,0,,,,0,,
101125-399,399.0,Txistoki Ibilbidea - Eskailerak,43.219092,-2.023155,,,0,,,,0,,
101125-400,400.0,Bazkardo - Donostiarantz,43.220818,-2.024962,,,0,,,,0,,
101125-405,405.0,"Antxisu Bailara, 37",43.248727,-2.020131,,,0,,,,0,,
101125-20,20.0,Oria Hiribidea - Zelaialde,43.252106,-2.0194,,,0,,,,0,,
101125-4397,4397.0,Bazkardo - Gasteizerantz,43.222543,-2.025575,,,0,,,,0,,
101125-395,395.0,"Karrika Kalea, 1",43.209505,-2.029882,,,0,,,,0,,
101125-1429,1429.0,Pedro Mari OtaÃ±o Plaza,43.199263,-2.073997,,,0,,,,0,,
101125-1273,1273.0,Zizurkilgo Bidegurutzea,43.191378,-2.074374,,,0,,,,0,,
101125-1274,1274.0,"Ernio Bidea, 37",43.191336,-2.063693,,,0,,,,0,,
101125-1266,1266.0,"Ernio Bidea,28, Hirubieta",43.191994,-2.060458,,,0,,,,0,,
101125-1276,1276.0,"Ernio Bidea, 12 Pasus-Enea",43.190828,-2.056686,,,0,,,,0,,
101125-1431,1431.0,Asteasuko Bidegurutzea,43.189346,-2.052721,,,0,,,,0,,
101125-1242,1242.0,Arroa Auzoa,43.181514,-2.054048,,,0,,,,0,,
101125-1243,1243.0,Ibaiondo Bailara,43.175707,-2.057423,,,0,,,,0,,
101125-1244,1244.0,"Kale Nagusia, 6",43.167677,-2.067634,,,0,,,,0,,
101125-971,971.0,"Kale Nagusia, 26",43.164621,-2.069452,,,0,,,,0,,
101125-1253,1253.0,Santa Lutzia,43.147214,-2.068142,,,0,,,,0,,
101125-1255,1255.0,"Zilar Kalea, 1 - Trinketea",43.16725,-2.066078,,,0,,,,0,,
101125-1256,1256.0,Laskibar Bailara,43.173689,-2.059497,,,0,,,,0,,
101125-1427,1427.0,"Kale Berria, 6",43.189517,-2.052694,,,0,,,,0,,
101125-390,390.0,Txistoki Ibilbidea - Aparkalekua,43.218512,-2.022745,,,0,,,,0,,
101125-1238,1238.0,"Kaleberria, 22 - Renfe",43.215758,-2.020857,,,0,,,,0,,
101125-397,397.0,"Aita Larramendi Kalea, 36 - Zumea Plaza",43.212666,-2.024612,,,0,,,,0,,
101125-394,394.0,Sorabilla,43.209558,-2.035063,,,0,,,,0,,
101125-1239,1239.0,"Ubegun Industrialdea, 1",43.19833,-2.040557,,,0,,,,0,,
101125-4303,4303.0,Agaraitz Industrialdea,43.196514,-2.051675,,,0,,,,0,,
101125-1241,1241.0,"Kale Berria, 10",43.189933,-2.052885,,,0,,,,0,,
101125-4398,4398.0,"Kale Nagusia, 72 - Kiroldegia",43.185206,-2.05297,,,0,,,,0,,
101125-1248,1248.0,"Larramendi Kalea,11",43.145612,-2.071536,,,0,,,,0,,
101125-1250,1250.0,"Larramendi Kalea, 1 - Arramele",43.141792,-2.071286,,,0,,,,0,,
101125-4399,4399.0,"Rondilla Kalea, 34- Gorosabel",43.139314,-2.073414,,,0,,,,0,,
101125-1096,1096.0,"SAN Frantzisko Ibilbidea, 1- Eliza",43.136574,-2.074193,,,0,,,,0,,
101125-1140,1140.0,Oria Kalea - Zezen Plaza,43.133382,-2.076946,,,0,,,,0,,
101125-1251,1251.0,"Nafarroa Hiribidea, 1",43.134922,-2.073665,,,0,,,,0,,
101125-937,937.0,"Ibaiondo Kalea, 1",43.136876,-2.071385,,,0,,,,0,,
101125-1252,1252.0,"Larramendi Kalea, 8 - Arramele",43.141962,-2.071198,,,0,,,,0,,
101125-4215,4215.0,Santa Lutzia Auzoa,43.14521,-2.069771,,,0,,,,0,,
101125-913,913.0,"Kale Berria, 66 - Eliza",43.186015,-2.052773,,,0,,,,0,,
101125-1258,1258.0,"Kale Berria, 11",43.189932,-2.052762,,,0,,,,0,,
101125-1259,1259.0,Kale Berria - Burni Zubi,43.193253,-2.053633,,,0,,,,0,,
101125-4101,4101.0,"Gartzia Goldaratz, 1",43.268192,-1.973636,,,0,,,,0,,
101125-4261,4261.0,"Antziola Auzoa, 40",43.272699,-1.977171,,,0,,,,0,,
101125-338,338.0,Galarreta - Frontoia,43.277342,-1.987975,,,0,,,,0,,
101125-1943,1943.0,Urbil - Eroski,43.276013,-2.021444,,,0,,,,0,,
101125-496,496.0,Tajamar Biribilgunea,43.270055,-2.019789,,,0,,,,0,,
101125-243,243.0,Learritza Pasealekua,43.264719,-2.05435,,,0,,,,0,,
101125-244,244.0,Santu-Enea Auzoa,43.266262,-2.055891,,,0,,,,0,,
101125-464,464.0,Atailu Industrialdea - Biribilgunea,43.267845,-2.052404,,,0,,,,0,,
101125-1945,1945.0,"SAN Inazio Kalea, 3",43.271468,-2.050586,,,0,,,,0,,
101125-463,463.0,Atailu Industrialdea,43.267917,-2.052403,,,0,,,,0,,
101125-256,256.0,"Santu-Enea Auzoa, 38",43.266192,-2.056077,,,0,,,,0,,
101125-266,266.0,Learritza Pasealekua,43.271097,-2.035324,,,0,,,,0,,
101125-4560,4560.0,Instituto,43.268712,-2.016422,,,0,,,,0,,
101125-307,307.0,Galarreta - Parke Teknologikoa,43.276972,-1.986798,,,0,,,,0,,
101125-278,278.0,"Marieluts Auzoa, 6",43.270307,-1.980612,,,0,,,,0,,
101125-237,237.0,Zinkoenea Plaza,43.267885,-1.973555,,,0,,,,0,,
101125-392,392.0,Begiristain Doktorea- Ospitaleko Aparkalekua,43.292603,-1.97161,,,0,,,,0,,
101121-4323,,Vi-Estacion De Autobuses,42.859325,-2.684342,14.0,,0,,,,0,,
101121-4324,,Durana,42.890694,-2.639935,12.0,,0,,,,0,,
101121-4325,,Carretera A-3002. Direccion Arrasate-Mondragon,42.905329,-2.629143,12.0,,0,,,,0,,
101121-4326,,C/ Urrundia. Direccion Arrasate-Mondragon,42.916639,-2.618134,12.0,,0,,,,0,,
101121-4327,,Carretera A-3002 Direccion Arrasate.Vitoria,42.937802,-2.607623,12.0,,0,,,,0,,
101121-194,,Santiagolarra,42.954734,-2.600454,12.0,,0,,,,0,,
101121-4328,,Carretera A-3002. Direccion Eskoriatza,42.958473,-2.590866,12.0,,0,,,,0,,
101121-4321,,Marisa,42.97792,-2.565424,7.0,,0,,,,0,,
101121-865,,Eduardo Gorosarri,43.018563,-2.525572,7.0,,0,,,,0,,
101121-4889,,Almen,43.024912,-2.512734,7.0,,0,,,,0,,
101121-4391,,Azbe,43.032984,-2.503194,7.0,,0,,,,0,,
101121-4330,,Zalduspe Ospitalea,43.063028,-2.481509,7.0,,0,,,,0,,
101121-4331,,Musakola/Zigarrola,43.067656,-2.477503,7.0,,0,,,,0,,
101121-884,,San Prudentzio,43.080105,-2.447865,7.0,,0,,,,0,,
101121-4312,,Ibargarai Geltokia,43.113402,-2.416285,7.0,,0,,,,0,,
101121-4428,,Osintxu,43.156602,-2.405001,7.0,,0,,,,0,,
101121-1552,,Zubi Nagusia,43.174092,-2.414132,8.0,,0,,,,0,,
101121-4316,,Urkizu,43.186929,-2.462962,8.0,,0,,,,0,,
101121-901,,Estacion,43.184015,-2.47533,8.0,,0,,,,0,,
101121-4447,,Intxaurtxueta,43.020391,-2.523398,7.0,,0,,,,0,,
101121-861,,Eduardo Gorosarri,43.018555,-2.525805,7.0,,0,,,,0,,
101121-4320,,Aingeru Guarda,43.015006,-2.531981,7.0,,0,,,,0,,
101121-2006,,Mazmela Dir Leintz,43.013715,-2.542323,7.0,,0,,,,0,,
101121-9938,,Kuatruena Dir Eskoriatza,43.00954,-2.547642,7.0,,0,,,,0,,
101121-2008,,Marulanda Dir Leintz,42.995037,-2.567475,7.0,,0,,,,0,,
101121-4431,,Leintz Herria,42.986653,-2.569619,7.0,,0,,,,0,,
101121-1438,,Gatzagain,42.977843,-2.571226,7.0,,0,,,,0,,
101121-60,,Aeropuerto Bilbao,43.305589,-2.905891,90.0,,0,,,,0,,
101121-610,,IÃ±urritza,43.282929,-2.160891,3.0,,0,,,,0,,
101121-2862,,Donostiako Autobus Geltokia,43.316563,-1.977533,1.0,,0,,,,0,,
101121-850,,Unzaga,43.184004,-2.473054,8.0,,0,,,,0,,
101121-999,,Bidebarrieta,43.18564,-2.464598,8.0,,0,,,,0,,
101121-1000,,Azitain,43.189817,-2.454802,8.0,,0,,,,0,,
101121-4442,,Malzaga,43.192803,-2.437312,8.0,,0,,,,0,,
101121-1455,,Sagar-Erreka,43.177817,-2.420679,8.0,,0,,,,0,,
101121-6047,,Ezozia,43.177583,-2.41544,8.0,,0,,,,0,,
101121-4459,,EstaziÃ±o,43.174901,-2.412168,8.0,,0,,,,0,,
101121-4439,,Txurruken,43.170225,-2.408141,8.0,,0,,,,0,,
101121-854,,Osintxu,43.156568,-2.405407,7.0,,0,,,,0,,
101121-1458,,Toki Eder,43.149919,-2.411707,7.0,,0,,,,0,,
101121-5367,,Mekolalde,43.14381,-2.414409,7.0,,0,,,,0,,
101121-4437,,Zubiberri,43.131136,-2.422325,7.0,,0,,,,0,,
101121-4436,,Madina Amillaga,43.122913,-2.422144,7.0,,0,,,,0,,
101121-4435,,Santa Marina 4,43.119559,-2.415944,7.0,,0,,,,0,,
101121-4873,,Ozaeta,43.107449,-2.419684,7.0,,0,,,,0,,
101121-4874,,Ola,43.09447,-2.433433,7.0,,0,,,,0,,
101121-4444,,Garratz,43.075604,-2.467129,7.0,,0,,,,0,,
101121-4445,,Eroski,43.071852,-2.471596,7.0,,0,,,,0,,
101121-4318,,Musakola/Zigarrola,43.067845,-2.477464,7.0,,0,,,,0,,
101121-5528,,Erdigunea - Centro,43.06426,-2.489358,7.0,,0,,,,0,,
101121-4446,,San Andres,43.060773,-2.492728,7.0,,0,,,,0,,
101121-6101,,Renfe Geltokia,43.087054,-2.320214,5.0,,0,,,,0,,
101121-923,,Deskarga,43.088039,-2.350156,7.0,,0,,,,0,,
101121-4393,,Sagasti Auzoa,43.096732,-2.379973,7.0,,0,,,,0,,
101121-2476,,"Ibargarai, 37",43.113175,-2.415906,7.0,,0,,,,0,,
101121-6900,,Pagatza,43.137797,-2.492202,7.0,,0,,,,0,,
101121-926,,Enparantza,43.136506,-2.487417,7.0,,0,,,,0,,
101121-928,,Ubera,43.134353,-2.45982,7.0,,0,,,,0,,
101121-498,,San Juan,43.132655,-2.445536,7.0,,0,,,,0,,
101121-4639,,Instituto,43.120984,-2.421609,7.0,,0,,,,0,,
101121-930,,Deskarga,43.088011,-2.350034,7.0,,0,,,,0,,
101121-4448,,Intxaurtxueta,43.020373,-2.5233,7.0,,0,,,,0,,
101121-878,,Araba Ibilbidea 31 / Portasol,43.028819,-2.506296,7.0,,0,,,,0,,
101121-5182,,Nafarroa Kalea,43.031657,-2.506458,7.0,,0,,,,0,,
101121-5180,,Lausitta,43.037084,-2.505763,7.0,,0,,,,0,,
101121-895,,Ulgor,43.054016,-2.494024,7.0,,0,,,,0,,
101121-4449,,San Andres,43.060834,-2.492457,7.0,,0,,,,0,,
101121-5529,,Kontzezino,43.063575,-2.491145,7.0,,0,,,,0,,
101121-4450,,Eroski,43.071154,-2.472486,7.0,,0,,,,0,,
101121-4451,,Kataide,43.074412,-2.46628,7.0,,0,,,,0,,
101121-4443,,Ola,43.094011,-2.433536,7.0,,0,,,,0,,
101121-898,,Ozaeta,43.106887,-2.420746,7.0,,0,,,,0,,
101121-188,,"Ibargarai, 9",43.116054,-2.415559,7.0,,0,,,,0,,
101121-4452,,Santa Marina Azoka,43.118586,-2.41583,7.0,,0,,,,0,,
101121-3237,,Madina/Itv,43.122779,-2.422293,7.0,,0,,,,0,,
101121-3682,,Zubiberri,43.130873,-2.422118,7.0,,0,,,,0,,
101121-4438,,Mekolalde,43.14303,-2.415007,7.0,,0,,,,0,,
101121-1467,,Toki Eder,43.149838,-2.411535,7.0,,0,,,,0,,
101121-5276,,Rekalde 25,43.171419,-2.409261,8.0,,0,,,,0,,
101121-1554,,Baltegieta,43.177043,-2.415445,8.0,,0,,,,0,,
101121-4440,,Maltzaga,43.192956,-2.43736,8.0,,0,,,,0,,
101121-993,,Azitain,43.189864,-2.455331,8.0,,0,,,,0,,
101121-4441,,Errebal,43.185746,-2.467981,8.0,,0,,,,0,,
101121-4314,,Bilboko Autobus Geltokia,43.260188,-2.949182,13.0,,0,,,,0,,
101121-942,,Zumarragako Ospitalea,43.083366,-2.313314,5.0,,0,,,,0,,
101121-4374,,Izazpe,43.084848,-2.31713,5.0,,0,,,,0,,
101121-3414,,Eizaga,43.086643,-2.310169,5.0,,0,,,,0,,
101121-4375,,Correos,43.088928,-2.312846,5.0,,0,,,,0,,
101121-6049,,Labeaga 14,43.091438,-2.315423,5.0,,0,,,,0,,
101121-4376,,IpiÃ±arrieta/Berriki,43.088416,-2.320567,5.0,,0,,,,0,,
101121-946,,Poblado Aparicio,43.078904,-2.326102,5.0,,0,,,,0,,
101121-4377,,Mendiazpe,43.076895,-2.327512,5.0,,0,,,,0,,
101121-4378,,Iturgorri,43.072526,-2.330311,5.0,,0,,,,0,,
101121-955,,Zurrategi,43.069082,-2.332719,5.0,,0,,,,0,,
101121-957,,Bereziartua,43.060749,-2.333547,5.0,,0,,,,0,,
101121-958,,Urola Industrialdea,43.054883,-2.331461,5.0,,0,,,,0,,
101121-4633,,Saturnino Telleria,43.052156,-2.331614,5.0,,0,,,,0,,
101121-4638,,Aitzgorri Kalea,43.048198,-2.335487,5.0,,0,,,,0,,
101121-507,,Patrizio Etxeberria Kalea,43.052191,-2.333087,5.0,,0,,,,0,,
101121-1963,,Santikrutz,43.05559,-2.333787,5.0,,0,,,,0,,
101121-959,,Laubide,43.056981,-2.336006,5.0,,0,,,,0,,
101121-1962,,San Ignazio,43.054897,-2.335341,5.0,,0,,,,0,,
101121-962,,Urola Industrialdea,43.055126,-2.331323,5.0,,0,,,,0,,
101121-963,,Zaldu,43.060739,-2.333399,5.0,,0,,,,0,,
101121-964,,Zurrategi,43.0691,-2.332621,5.0,,0,,,,0,,
101121-510,,Iturgorri,43.072483,-2.33057,5.0,,0,,,,0,,
101121-945,,Poblado Aparicio,43.078779,-2.326275,5.0,,0,,,,0,,
101121-4380,,Elizalde,43.089166,-2.313384,5.0,,0,,,,0,,
101121-7738,,San Gregorio 4,43.086729,-2.311003,5.0,,0,,,,0,,
101121-531,,Izazpi,43.084777,-2.317401,5.0,,0,,,,0,,
101121-3820,,Argixao 6,43.083693,-2.315239,5.0,,0,,,,0,,
101121-2446,,Unzaga Lateral,43.184476,-2.473751,8.0,,0,,,,0,,
101121-1437,,Azbe,43.033308,-2.503155,7.0,,0,,,,0,,
101121-4888,,"Ederlan, Gi-627 Pk 29.6",43.025047,-2.512819,7.0,,0,,,,0,,
101121-4329,,Marisa,42.974373,-2.575211,7.0,,0,,,,0,,
101121-4386,,Landa,42.958896,-2.590802,12.0,,0,,,,0,,
101121-195,,Santiagolarra,42.954743,-2.60065,12.0,,0,,,,0,,
101121-4387,,Carretera A-3002 Direccion Vitoria-Gasteiz,42.93938,-2.605554,12.0,,0,,,,0,,
101121-4388,,C/ Urrundia. Direccion Vitoria-Gasteiz,42.916739,-2.618318,12.0,,0,,,,0,,
101121-4389,,Mendibil,42.905491,-2.629216,12.0,,0,,,,0,,
101121-4390,,Durana,42.890361,-2.640035,12.0,,0,,,,0,,
101121-4392,,Posta Geltokia,43.034248,-2.416066,7.0,,0,,,,0,,
101121-4544,,Zubillaga,43.061411,-2.44037,7.0,,0,,,,0,,
101121-4333,,Aingeru Guarda,43.014172,-2.532883,7.0,,0,,,,0,,
101121-4693,,Mugarrieta Dir Arrasate,43.048013,-2.498898,7.0,,0,,,,0,,
101121-1124,,"San Juan Kalea, 07",43.185244,-2.472391,8.0,,0,,,,0,,
101121-1408,,Unibertsitatea,43.180165,-2.48816,8.0,,0,,,,0,,
101121-6027,,"Baldespina Markesa, 14",43.186231,-2.503885,8.0,,0,,,,0,,
101121-4455,,Hormigones/OxiÃ±urdin,43.068771,-2.44664,7.0,,0,,,,0,,
101121-874,,Zubillaga,43.061521,-2.440676,7.0,,0,,,,0,,
101121-4454,,Magdalena,43.052326,-2.431452,7.0,,0,,,,0,,
101121-5677,,Goribar Auzoa 7,43.043681,-2.422336,7.0,,0,,,,0,,
101121-7158,,Aita Lizarralde,43.030831,-2.408353,7.0,,0,,,,0,,
101121-4457,,San Lorentzo/Olakua,43.032213,-2.403945,7.0,,0,,,,0,,
101121-9,,Olabarrieta,43.02779,-2.389873,7.0,,0,,,,0,,
101121-1430,,BikuÃ±a Industrialdea,43.03876,-2.336866,5.0,,0,,,,0,,
101121-881,,Ulgor,43.053837,-2.494332,7.0,,0,,,,0,,
101121-4692,,Mugarrieta Dir Aretxabaleta,43.04828,-2.49827,7.0,,0,,,,0,,
101121-5179,,Kuartela,43.038643,-2.504118,7.0,,0,,,,0,,
101121-5181,,Errekabarren 8/Osasun Zentroa,43.035566,-2.504732,7.0,,0,,,,0,,
101121-875,,Portasol,43.029135,-2.506367,7.0,,0,,,,0,,
101121-4315,,Txankakoa,43.215573,-2.417035,8.0,,0,,,,0,,
101121-1439,,Gatzagain,42.977698,-2.571092,7.0,,0,,,,0,,
101121-4432,,Leintz Herria,42.987315,-2.568547,7.0,,0,,,,0,,
101121-2007,,Marulanda Dir Eskoriatza,42.994857,-2.567366,7.0,,0,,,,0,,
101121-1624,,Marin,43.001995,-2.58621,7.0,,0,,,,0,,
101121-2005,,Mazmela Dir Eskoriatza,43.013661,-2.542274,7.0,,0,,,,0,,
101121-5274,,BikuÃ±a Industrialdea,43.038715,-2.336903,5.0,,0,,,,0,,
101121-8,,Olabarrieta,43.028017,-2.390202,7.0,,0,,,,0,,
101121-4434,,San Lorentzo/Olakua 2,43.032017,-2.404266,7.0,,0,,,,0,,
101121-4453,,Kale Goiena,43.031514,-2.407966,7.0,,0,,,,0,,
101121-5669,,Goribar Auzoa 7 Parean,43.043752,-2.422077,7.0,,0,,,,0,,
101121-5414,,Magdalena,43.052325,-2.431329,7.0,,0,,,,0,,
101121-4347,,San Pio X,43.130502,-2.545473,11.0,,0,,,,0,,
101121-5183,,Estacion De Autobuses,43.131631,-2.584046,11.0,,0,,,,0,,
101121-4349,,Erdigunea,43.150454,-2.610643,11.0,,0,,,,0,,
101121-4350,,Magdalena,43.171779,-2.632961,11.0,,0,,,,0,,
101121-1970,,San Juan,43.129078,-2.434061,7.0,,0,,,,0,,
101121-927,,Ubera,43.134434,-2.459795,7.0,,0,,,,0,,
101121-4351,,Magdalena,43.171626,-2.632974,11.0,,0,,,,0,,
101121-4352,,Erdialde,43.149931,-2.610376,11.0,,0,,,,0,,
101121-4348,,Atxondoko Autobus Geltokia,43.131624,-2.584685,11.0,,0,,,,0,,
101121-4353,,San Pio X,43.130629,-2.545558,11.0,,0,,,,0,,
101121-4417,,Urazandi,43.216303,-2.413642,8.0,,0,,,,0,,
101121-212,,Kale Nagusia 40 - Zumaburu,43.266091,-2.019533,1.0,,0,,,,0,,
101121-4397,,Bazkardo - Gasteizerantz,43.2206,-2.024781,1.0,,0,,,,0,,
101121-4398,,Kale Nagusia 72 - Kiroldegia,43.185206,-2.05297,2.0,,0,,,,0,,
101121-4399,,Rondilla Kalea 34- Gorosabel,43.139234,-2.073489,2.0,,0,,,,0,,
101121-915,,"Bidebitarte, 17",43.100903,-2.098534,2.0,,0,,,,0,,
101121-916,,"San Lorentzo, 18 - Polikiroldegia",43.09381,-2.125547,2.0,,0,,,,0,,
101121-1220,,Legorreta,43.085886,-2.150673,5.0,,0,,,,0,,
101121-1222,,Itsasondoko Plaza,43.067558,-2.164964,5.0,,0,,,,0,,
101121-4400,,Erdigunea,43.054098,-2.180263,5.0,,0,,,,0,,
101121-4401,,Tren Geltokia,43.046348,-2.202392,5.0,,0,,,,0,,
101121-4402,,"Zumarralde,2",43.043786,-2.256421,5.0,,0,,,,0,,
101121-4403,,Santa Luzia,43.062609,-2.273767,5.0,,0,,,,0,,
101121-4404,,Marmoles IpiÃ±arrieta,43.077169,-2.292291,5.0,,0,,,,0,,
101121-1553,,"Bizkaia Etorbidea, 11",43.185724,-2.50336,8.0,,0,,,,0,,
101121-6029,,Unibertsitatea,43.178994,-2.490261,8.0,,0,,,,0,,
101121-4394,,Marquesina. Direccion Beasain,43.075519,-2.290505,5.0,,0,,,,0,,
101121-4395,,Santa Luzia,43.067851,-2.282585,5.0,,0,,,,0,,
101121-4396,,San Andres,43.042635,-2.25253,5.0,,0,,,,0,,
101121-934,,Geltokia,43.052838,-2.179138,5.0,,0,,,,0,,
101121-1230,,Itsasondoko Plaza,43.067431,-2.164905,5.0,,0,,,,0,,
101121-1233,,Legorreta,43.085794,-2.150502,5.0,,0,,,,0,,
101121-2662,,"San Lorentzo, 12",43.094593,-2.124332,2.0,,0,,,,0,,
101121-2663,,"Bideberrieta, 17",43.101104,-2.097732,2.0,,0,,,,0,,
101121-937,,Ibaiondo Kalea 1,43.136876,-2.071385,2.0,,0,,,,0,,
101121-913,,Kale Berria 66 - Eliza,43.18622,-2.052536,2.0,,0,,,,0,,
101121-400,,Bazkardo - Donostiarantz,43.221936,-2.025129,1.0,,0,,,,0,,
101121-215,,Kale Nagusia 41 - Zumaburu,43.26628,-2.01948,1.0,,0,,,,0,,
101124-1176,,Orexa,43.093844,-2.011399,2.0,,0,,,,0,,
101124-4252,,Legasa Alde,43.091009,-2.012685,2.0,,0,,,,0,,
101124-1178,,"Kale Nagusia, 25",43.102027,-2.034309,2.0,,0,,,,0,,
101124-4253,,Ostatuberri Aldea,43.105662,-2.03725,2.0,,0,,,,0,,
101124-1180,,"Irunzubi Aldea, 1",43.114671,-2.058299,2.0,,0,,,,0,,
101124-897,,"Txarama Auzoa, 16",43.112105,-2.063759,2.0,,0,,,,0,,
101124-1181,,"Amategi Alde, 127",43.111015,-2.069208,2.0,,0,,,,0,,
101124-1182,,Txarama Kalea,43.1153,-2.073592,2.0,,0,,,,0,,
101124-1183,,"IruÃ±a Etorbidea, Ermita",43.119483,-2.07632,2.0,,0,,,,0,,
101124-1184,,"IruÃ±a Etorbidea, Amaroz",43.126419,-2.078907,2.0,,0,,,,0,,
101124-1185,,"IruÃ±a Etorbidea, 4 Lurramendi",43.129996,-2.079173,2.0,,0,,,,0,,
101124-1186,,"Kondeaneko Aldapa, 5",43.131337,-2.075711,2.0,,0,,,,0,,
101124-889,,"Kondeaneko Aldapa, 3",43.134131,-2.072718,2.0,,0,,,,0,,
101124-1167,,"Kondeaneko Aldapa, 22",43.13166,-2.075546,2.0,,0,,,,0,,
101124-1168,,"IruÃ±a Etorbidea, 4 - Iurramendi",43.130239,-2.079182,2.0,,0,,,,0,,
101124-1169,,"IruÃ±a Etorbidea 22, Amaroz",43.126592,-2.079151,2.0,,0,,,,0,,
101124-1170,,"IruÃ±a Etorbidea 26, Araxes",43.119083,-2.077002,2.0,,0,,,,0,,
101124-1172,,Txarama Kalea - Baratzondo Berri,43.11531,-2.073703,2.0,,0,,,,0,,
101124-1173,,"Amategi Alde, 127",43.110989,-2.06938,2.0,,0,,,,0,,
101124-890,,"Txarama Kalea, 19 - Errotazpi",43.112951,-2.060452,2.0,,0,,,,0,,
101124-1177,,"Irunzubi Aldea, 1",43.114608,-2.058263,2.0,,0,,,,0,,
101124-4203,,Ostatu Berri Aldea,43.105021,-2.035921,2.0,,0,,,,0,,
101124-1175,,"Kale Nagusia, 12",43.102313,-2.034107,2.0,,0,,,,0,,
101124-4204,,Legasa Alde,43.090992,-2.012722,2.0,,0,,,,0,,
101124-1140,,Oria Kalea - Zezen Plaza,43.13331,-2.076935,2.0,,0,,,,0,,
101124-937,,Ibaiondo Kalea 1,43.136876,-2.071385,2.0,,0,,,,0,,
101124-1004,,Trinkete Plaza,43.140466,-2.071122,2.0,,0,,,,0,,
101124-1095,,"Belate, 1",43.140746,-2.072286,2.0,,0,,,,0,,
101124-1197,,"Hernialdeko Bidegurutzea, Zuloaga",43.15048,-2.072311,2.0,,0,,,,0,,
101124-1187,,"Industrialdea, 11",43.157785,-2.068154,2.0,,0,,,,0,,
101124-974,,Anoeta Sarrera - Gi-3650,43.161107,-2.069136,2.0,,0,,,,0,,
101124-972,,Kale Nagusia 3,43.167516,-2.067784,2.0,,0,,,,0,,
101124-1256,,Laskibar Bailara,43.173689,-2.059497,2.0,,0,,,,0,,
101124-4398,,Kale Nagusia 72 - Kiroldegia,43.185206,-2.05297,2.0,,0,,,,0,,
101124-1265,,"Ernio Bidea, 12 Pasus-enea",43.191111,-2.057063,2.0,,0,,,,0,,
101124-4838,,"Ernio Bidea, 25",43.192038,-2.061479,2.0,,0,,,,0,,
101124-1267,,Akezko Auzoa 2,43.191357,-2.064025,2.0,,0,,,,0,,
101124-1268,,Zizurkilgo Bidegurutzea,43.191481,-2.074804,2.0,,0,,,,0,,
101124-1269,,Alkizako Bidegurutzea,43.190623,-2.0846,2.0,,0,,,,0,,
101124-1271,,Asteasu Erdigunea,43.193346,-2.096026,2.0,,0,,,,0,,
101124-4213,,Larraul,43.188015,-2.10204,2.0,,0,,,,0,,
101124-1096,,San Frantzisko Ibilbidea 1- Eliza,43.136584,-2.074267,2.0,,0,,,,0,,
101124-1097,,Renfe-jesuitinas,43.134648,-2.077641,2.0,,0,,,,0,,
101124-1126,,"Araba Etorb, 5 - Eroski Zubia",43.133183,-2.082396,2.0,,0,,,,0,,
101124-1104,,Benta Haundi,43.126209,-2.087516,2.0,,0,,,,0,,
101124-4195,,"Erbeta 2, Txintxarri",43.105735,-2.094715,2.0,,0,,,,0,,
101124-915,,"Bidebitarte, 17",43.100903,-2.098534,2.0,,0,,,,0,,
101124-4193,,"San Juan, 61 Tontokalea",43.100575,-2.098047,2.0,,0,,,,0,,
101124-1127,,"Larraitz Auzoa, 40",43.097654,-2.095375,2.0,,0,,,,0,,
101124-1128,,"Joxean Tolosa, 3 - Ugarte",43.068419,-2.084505,2.0,,0,,,,0,,
101124-1129,,"Alegiko Bidea, 1 - Zubillaga",43.05649,-2.08817,2.0,,0,,,,0,,
101124-4219,,"Bartolome Deunaren Bidea, 18",43.050435,-2.088763,2.0,,0,,,,0,,
101124-1131,,Fernando Amezketarra Enparantza,43.049048,-2.08763,2.0,,0,,,,0,,
101124-834,,"Elizkale, 6 - Zumadi Eskola",43.045147,-2.085146,2.0,,0,,,,0,,
101124-1132,,"Elizkale, 20",43.044664,-2.083361,2.0,,0,,,,0,,
101124-835,,"Elizkale, 7 - Zumadi Eskola",43.045174,-2.085133,2.0,,0,,,,0,,
101124-5266,,Ipintza-garmendia,43.046699,-2.099169,2.0,,0,,,,0,,
101124-1133,,"San Juan Pza, Z/g",43.047351,-2.105347,2.0,,0,,,,0,,
101124-836,,Larraitz Auzoa,43.036955,-2.099041,2.0,,0,,,,0,,
101124-853,,Asuncion Klinika,43.13962,-2.068921,2.0,,0,,,,0,,
101124-855,,Santa Klara,43.136536,-2.071661,2.0,,0,,,,0,,
101124-1141,,"Ibarra Kalea, 2 - Tolosana",43.134132,-2.071747,2.0,,0,,,,0,,
101124-1142,,"Euskal Herria, 18",43.132696,-2.067871,2.0,,0,,,,0,,
101124-1143,,"Euskal Herria, 44 - Kulturetxe",43.13242,-2.063855,2.0,,0,,,,0,,
101124-1146,,"Euskal Herria, 62 - Ibarburu",43.132907,-2.060601,2.0,,0,,,,0,,
101124-1216,,"Okobio 69, San JosÃ©",43.135355,-2.057256,2.0,,0,,,,0,,
101124-5265,,Leitzako Errepidea,43.141599,-2.045737,2.0,,0,,,,0,,
101124-1147,,"Beotibar, 8 - Gure Txokoa",43.142389,-2.041076,2.0,,0,,,,0,,
101124-857,,"J.m. Goikoetxea,12-telleri",43.145928,-2.029326,2.0,,0,,,,0,,
101124-1148,,"J.m. Goikoetxea, 28 - Herrigunea",43.14544,-2.026026,2.0,,0,,,,0,,
101124-1149,,"J. M Goikoetxea, 52 - Ermita",43.144478,-2.021897,2.0,,0,,,,0,,
101124-1150,,"Eldua Auzoa, 5 - Maximene-papelera",43.143029,-2.015771,2.0,,0,,,,0,,
101124-859,,"Elduain Sakabanatua Barreiatua, 48",43.144039,-2.007541,2.0,,0,,,,0,,
101124-1151,,"Elduain Hirigunea, 53 - Goikoetxea",43.14163,-2.002919,2.0,,0,,,,0,,
101124-1152,,"Elduain Hirigunea, 1",43.140938,-1.99993,2.0,,0,,,,0,,
101124-4201,,Aiztunalde,43.133625,-1.987545,2.0,,0,,,,0,,
101124-4202,,"Elduainalde, 5",43.13018,-1.984934,2.0,,0,,,,0,,
101124-1153,,Berastegi - Elduainalde,43.126821,-1.980822,2.0,,0,,,,0,,
101124-1154,,"Herriko Enparantza, 1",43.124113,-1.979084,2.0,,0,,,,0,,
101124-1145,,"Euskal Herria, 32 - Txumitxa",43.132244,-2.066488,2.0,,0,,,,0,,
101124-2142,,Poligono Okobio,43.134354,-2.058157,2.0,,0,,,,0,,
101124-1203,,Toki Alai,43.136503,-2.053415,2.0,,0,,,,0,,
101124-1204,,Andresenea,43.135469,-2.050357,2.0,,0,,,,0,,
101124-1205,,Leaburuko Benta-artetxe,43.126435,-2.048972,2.0,,0,,,,0,,
101124-1206,,Leaburu Herrigunea,43.124469,-2.0529,2.0,,0,,,,0,,
101124-1207,,San Sebastian Ermita,43.12073,-2.054826,2.0,,0,,,,0,,
101124-922,,"Leaburu, 45 - Mahala",43.121896,-2.045637,2.0,,0,,,,0,,
101124-1208,,Gazteluko Kontzejua,43.116119,-2.024758,2.0,,0,,,,0,,
101124-1209,,Gazteluko Plaza,43.116539,-2.022207,2.0,,0,,,,0,,
101124-1281,,Larreta Baserriko Bidegurutzea,43.087936,-2.108909,2.0,,0,,,,0,,
101124-1282,,Okaitz Garro Baserria,43.085541,-2.107728,2.0,,0,,,,0,,
101124-1279,,Abaltzisketako Bidegurutzea,43.081805,-2.106775,2.0,,0,,,,0,,
101124-1237,,Herrigunea,43.079481,-2.113638,2.0,,0,,,,0,,
101124-1284,,Zaragoza Baserriko Bidegurutzea,43.075805,-2.10637,2.0,,0,,,,0,,
101124-1283,,Zubeltzu Baserria,43.068122,-2.106187,2.0,,0,,,,0,,
101124-2447,,Sasiain,43.061834,-2.105738,2.0,,0,,,,0,,
101124-2448,,Olano,43.05775,-2.10285,2.0,,0,,,,0,,
101124-2449,,Pildain,43.052931,-2.104984,2.0,,0,,,,0,,
101124-1429,,Pedro Mari OtaÃ±o Plaza,43.199263,-2.073997,2.0,,0,,,,0,,
101124-4214,,San Miguel Ermita,43.200258,-2.067889,2.0,,0,,,,0,,
101124-1221,,Ibaiondo Poligonoa,43.196492,-2.055528,2.0,,0,,,,0,,
101124-1241,,Kale Berria 10,43.189933,-2.052885,2.0,,0,,,,0,,
101124-4197,,Altzo MuÃ±o - Udaletxea,43.100196,-2.084314,2.0,,0,,,,0,,
101124-1069,,Herrigunea-amalkor,43.204412,-2.049608,2.0,,0,,,,0,,
101124-4211,,"Zubitxiki, 10",43.205884,-2.04364,2.0,,0,,,,0,,
101124-4212,,Urtaki Industrialdea,43.202344,-2.044593,2.0,,0,,,,0,,
101124-1064,,Uparan Industrialdea,43.198032,-2.049005,2.0,,0,,,,0,,
101124-1258,,Kale Berria 11,43.189932,-2.052762,2.0,,0,,,,0,,
101124-1165,,"Euskal Herria, 17 - Anbulategia",43.1331,-2.068836,2.0,,0,,,,0,,
101124-887,,Izaskun - Jatetxeko Aparkalekua,43.138719,-2.063377,2.0,,0,,,,0,,
101124-1259,,Kale Berria - Burni Zubi,43.193253,-2.053633,2.0,,0,,,,0,,
101124-4207,,San Miguel Ermita,43.20035,-2.068085,2.0,,0,,,,0,,
101124-1192,,Santa Kruz Apaiza Enparantza,43.154806,-2.085074,2.0,,0,,,,0,,
101124-2243,,Txingurri Ballara,43.155655,-2.079785,2.0,,0,,,,0,,
101124-2245,,Olotza Ballara,43.150001,-2.079894,2.0,,0,,,,0,,
101124-2244,,Anoetako Bidegurutzea,43.152363,-2.075788,2.0,,0,,,,0,,
101124-1236,,Belate 1,43.14081,-2.072408,2.0,,0,,,,0,,
101124-1559,,Iurre Auzoa 1,43.131529,-2.082851,2.0,,0,,,,0,,
101124-1272,,Alkizako Bidegurutzea,43.190667,-2.08444,2.0,,0,,,,0,,
101124-1273,,Zizurkilgo Bidegurutzea,43.191343,-2.074535,2.0,,0,,,,0,,
101124-1274,,"Ernio Bidea, 37",43.19131,-2.063767,2.0,,0,,,,0,,
101124-1266,,"Ernio Bidea,28, Hirubieta",43.191994,-2.060458,2.0,,0,,,,0,,
101124-1276,,"Ernio Bidea, 12 Pasus-enea",43.190939,-2.056992,2.0,,0,,,,0,,
101124-4208,,"Elbarren 7, Santa Kruz Ermita",43.201304,-2.049447,2.0,,0,,,,0,,
101124-1286,,Intxausti Auzoa,43.102105,-2.07647,2.0,,0,,,,0,,
101124-1291,,"Amategi Alde, 127",43.104789,-2.075459,2.0,,0,,,,0,,
101124-2834,,Ipintzaundi,43.105774,-2.083715,2.0,,0,,,,0,,
101124-1289,,Altzo Azpi,43.106209,-2.087432,2.0,,0,,,,0,,
101124-4860,,Larraitz Auzoa,43.036807,-2.098528,2.0,,0,,,,0,,
101124-695,,Ipintza-garmendia,43.046729,-2.099573,2.0,,0,,,,0,,
101124-1449,,"Bartolome Deunaren Bidea, 17",43.05047,-2.088652,2.0,,0,,,,0,,
101124-1135,,"Alegiko Bidea, 1 - Zubilaga",43.056525,-2.08801,2.0,,0,,,,0,,
101124-1136,,"Joxean Tolosa, 3 - Ugarte",43.068032,-2.084437,2.0,,0,,,,0,,
101124-1137,,"Larraitz Auzoa, 9",43.098108,-2.095872,2.0,,0,,,,0,,
101124-1138,,"San Juan, 38 - Tontokalea",43.100611,-2.098022,2.0,,0,,,,0,,
101124-2663,,"Bideberrieta, 17",43.101104,-2.097732,2.0,,0,,,,0,,
101124-1114,,Benta Haundi,43.126127,-2.087444,2.0,,0,,,,0,,
101124-1139,,"Araba Etorb., 5 - Eroski Zubia",43.133068,-2.082705,2.0,,0,,,,0,,
101124-1155,,Berastegi - Elduainalde,43.126737,-1.980491,2.0,,0,,,,0,,
101124-4249,,"Elduainalde, 5",43.130187,-1.984663,2.0,,0,,,,0,,
101124-4250,,Aiztunalde,43.133625,-1.987508,2.0,,0,,,,0,,
101124-1156,,"Elduain Hirigunea, 1",43.140928,-1.999856,2.0,,0,,,,0,,
101124-1157,,"Elduain Hirigunea, 53 - Goikoetxea",43.141673,-2.002685,2.0,,0,,,,0,,
101124-858,,"Elduain Sakabanatua Barreiatua, 48",43.14412,-2.007527,2.0,,0,,,,0,,
101124-1158,,"Eldua Auzoa, 5 - Maximene-papelera",43.14329,-2.016763,2.0,,0,,,,0,,
101124-1159,,"J. M. Goikoetxea, 49 - Ermita",43.144576,-2.021846,2.0,,0,,,,0,,
101124-1160,,"J.m Goikoetxea, 27 - Herrigunea",43.14553,-2.026,2.0,,0,,,,0,,
101124-4251,,"J. M. Goikoetxea,9-telleri",43.146084,-2.029754,2.0,,0,,,,0,,
101124-1161,,"Beotibar, 8 - Gure Txokoa",43.142496,-2.041013,2.0,,0,,,,0,,
101124-856,,"Leitzako Errepidea, 21",43.141628,-2.045958,2.0,,0,,,,0,,
101124-1202,,Euskal Herria 85,43.135357,-2.057453,2.0,,0,,,,0,,
101124-1163,,"Euskal Herria, 51 - Ibarburu",43.132484,-2.064013,2.0,,0,,,,0,,
101124-1166,,"Ibarralde Kalea, 3 - Tolosana",43.134395,-2.071902,2.0,,0,,,,0,,
101124-4861,,Santa Klara,43.136617,-2.071672,2.0,,0,,,,0,,
101124-1277,,Azaldegi Bailara,43.181799,-2.086972,2.0,,0,,,,0,,
101124-1191,,Alkizako Plaza,43.172733,-2.108834,2.0,,0,,,,0,,
101124-2996,,Arana Bailara,43.166376,-2.095111,2.0,,0,,,,0,,
101124-1194,,"San Juan Kalea, 6 Estankoa",43.163909,-2.072698,2.0,,0,,,,0,,
101124-1195,,"Apeadero 5, Renfeko Zubia",43.161973,-2.070464,2.0,,0,,,,0,,
101124-1196,,"Industrialdea, 11",43.157625,-2.068316,2.0,,0,,,,0,,
101124-1198,,"Hernialdeko Bidegurutzea, Zuloaga",43.150291,-2.072252,2.0,,0,,,,0,,
101124-1188,,"San Juan, 2 Renfeko Zubia",43.161893,-2.070527,2.0,,0,,,,0,,
101124-1189,,San Juan 6 Estanko,43.163935,-2.072575,2.0,,0,,,,0,,
101124-2997,,Arana Bailara,43.166456,-2.095012,2.0,,0,,,,0,,
101124-1264,,Azaldegi Bailara,43.182906,-2.085725,2.0,,0,,,,0,,
101124-1109,,Bidegoiango Plaza,43.140127,-2.159981,2.0,,0,,,,0,,
101124-4230,,Goiatz Gunea,43.142376,-2.167107,2.0,,0,,,,0,,
101124-1110,,Toki Alai,43.137448,-2.160559,2.0,,0,,,,0,,
101124-1111,,Zelai,43.133847,-2.159526,2.0,,0,,,,0,,
101124-1112,,Santutxu,43.121646,-2.152256,2.0,,0,,,,0,,
101124-4231,,Gaiztarro,43.125602,-2.139379,2.0,,0,,,,0,,
101124-4232,,Eliza,43.129682,-2.137072,2.0,,0,,,,0,,
101124-4233,,Arkatzpe,43.129399,-2.131802,2.0,,0,,,,0,,
101124-4238,,Urreta,43.125262,-2.120637,2.0,,0,,,,0,,
101124-4235,,Otzarain,43.124087,-2.092428,2.0,,0,,,,0,,
101124-1210,,Gazteluko Kontzejua,43.116172,-2.024671,2.0,,0,,,,0,,
101124-1211,,San Sebastian Ermita,43.12082,-2.054812,2.0,,0,,,,0,,
101124-1212,,Leaburu Herrigunea,43.124558,-2.052763,2.0,,0,,,,0,,
101124-1213,,Leaburuko Benta-artetxe,43.126353,-2.048863,2.0,,0,,,,0,,
101124-1214,,Andresenea,43.135723,-2.05055,2.0,,0,,,,0,,
101124-1215,,Toki Alai,43.136504,-2.053501,2.0,,0,,,,0,,
101124-1162,,"Euskal Herria, 75",43.132953,-2.060723,2.0,,0,,,,0,,
101124-1485,,"Euskal Herria 55, Kultur Etxe",43.132425,-2.063338,2.0,,0,,,,0,,
101124-1164,,"Euskal Herria, 41 - Txumitxa",43.132435,-2.066731,2.0,,0,,,,0,,
101124-4215,,Santa Lutzia Auzoa,43.14521,-2.069771,2.0,,0,,,,0,,
101124-4236,,Otzarain,43.124204,-2.092402,2.0,,0,,,,0,,
101124-4237,,Urreta,43.125117,-2.120528,2.0,,0,,,,0,,
101124-4239,,Ugarte,43.128959,-2.128354,2.0,,0,,,,0,,
101124-4241,,Eliza,43.129727,-2.137084,2.0,,0,,,,0,,
101124-4242,,Gaiztarro,43.125549,-2.139442,2.0,,0,,,,0,,
101124-1100,,Santutxu,43.121955,-2.152559,2.0,,0,,,,0,,
101124-1101,,Toki Alai,43.137329,-2.160388,2.0,,0,,,,0,,
101124-1105,,Bidegoiango Plaza,43.140126,-2.159883,2.0,,0,,,,0,,
101124-4209,,Elbarren Eliza,43.203362,-2.048923,2.0,,0,,,,0,,
101124-4123,,Sorabilla,43.209924,-2.034725,1.0,,0,,,,0,,
101124-395,,"Karrika Kalea, 1",43.209576,-2.029733,1.0,,0,,,,0,,
101124-396,,"Aita Larramendi Kalea, 19 - Zumea Plaza",43.212752,-2.024179,1.0,,0,,,,0,,
101124-398,,Kaleberria 10 - Renfe,43.216451,-2.020809,1.0,,0,,,,0,,
101124-4199,,"Aldaba Auzoa, 7 Lantier",43.096009,-2.118819,2.0,,0,,,,0,,
101124-916,,"San Lorentzo, 18 - Polikiroldegia",43.09381,-2.125547,2.0,,0,,,,0,,
101124-1199,,"Bezunzibar Industrialdea, 1",43.09077,-2.124878,2.0,,0,,,,0,,
101124-1217,,Ola Auzoa - Eredu,43.085255,-2.129059,5.0,,0,,,,0,,
101124-1200,,Baliarrain,43.069316,-2.127873,2.0,,0,,,,0,,
101124-1293,,San Juan Iturria,43.070053,-2.139506,2.0,,0,,,,0,,
101124-9219,,Renfe,43.135424,-2.078944,2.0,,0,,,,0,,
101124-960,,Zubizarreta Parkina,43.131759,-2.068942,2.0,,0,,,,0,,
101124-1834,,Apatta Biribilgunea,43.12571,-2.062568,2.0,,0,,,,0,,
101124-965,,Apatta Erreka,43.122947,-2.064896,2.0,,0,,,,0,,
101124-1242,,Arroa Auzoa,43.181514,-2.054048,2.0,,0,,,,0,,
101124-1243,,Ibaiondo Bailara,43.175707,-2.057423,2.0,,0,,,,0,,
101124-1244,,Kale Nagusia 6,43.167705,-2.067708,2.0,,0,,,,0,,
101124-971,,Kale Nagusia 26 - Etxezarreta,43.164621,-2.069452,2.0,,0,,,,0,,
101124-973,,Anoeta Sarrera - Gi-3650,43.161081,-2.069248,2.0,,0,,,,0,,
101124-4399,,Rondilla Kalea 34- Gorosabel,43.139234,-2.073489,2.0,,0,,,,0,,
101124-1201,,"Bezunzibar Industrialdea 1, Zubiaurre",43.090814,-2.124791,2.0,,0,,,,0,,
101124-935,,"San Lorentzo, 18 - Polikiroldegia",43.093781,-2.125326,2.0,,0,,,,0,,
101124-4217,,"Aldaba Auzoa, 7 Lantier",43.095927,-2.11866,2.0,,0,,,,0,,
101124-1248,,Larramendi Kalea11,43.1449,-2.071522,2.0,,0,,,,0,,
101124-1250,,Larramendi Kalea 1 - Arramele,43.141792,-2.071286,2.0,,0,,,,0,,
101124-847,,Bedaio,43.049977,-2.040491,2.0,,0,,,,0,,
101124-1238,,Kaleberria 22 - Renfe,43.215921,-2.020891,1.0,,0,,,,0,,
101124-397,,"Aita Larramendi Kalea, 36 - Zumea Plaza",43.212666,-2.024612,1.0,,0,,,,0,,
101124-393,,"Karrika Kalea, 2",43.209204,-2.030465,1.0,,0,,,,0,,
101124-1240,,"Elutxe Kale 1, Oskarbi",43.20434,-2.049634,2.0,,0,,,,0,,
101124-1253,,Santa Lutzia,43.147214,-2.068142,2.0,,0,,,,0,,
101124-5271,,Zaragoza Baserriko Bidegurutzea,43.07584,-2.106272,2.0,,0,,,,0,,
101124-1280,,Abaltzisketako Bidegurutzea,43.081923,-2.106834,2.0,,0,,,,0,,
101124-1469,,"Larraitz Auzunea, Zubia",43.099914,-2.09759,2.0,,0,,,,0,,
101124-5267,,Anoetako Bidegurutzea,43.152436,-2.075823,2.0,,0,,,,0,,
101124-1278,,Ubare Auzoa - Renfe,43.189484,-2.055242,2.0,,0,,,,0,,
101124-1252,,Larramendi Kalea 8 - Arramele,43.141853,-2.071101,2.0,,0,,,,0,,
101124-2859,,Apatta Biribilgunea 2,43.125403,-2.062499,2.0,,0,,,,0,,
101120-19,,Arco Topo,43.308064,-1.879675,1.0,,0,,,,0,,
101120-114,,Talaia,43.304276,-1.883603,1.0,,0,,,,0,,
101120-115,,Mamut Merk.gunea,43.302102,-1.882275,1.0,,0,,,,0,,
101120-4106,,Aristegi,43.299593,-1.880743,1.0,,0,,,,0,,
101120-116,,Ugaldetxo,43.298502,-1.876066,1.0,,0,,,,0,,
101120-4986,,Ibarre,43.296075,-1.871931,1.0,,0,,,,0,,
101120-4987,,Iturriotz,43.292691,-1.864758,1.0,,0,,,,0,,
101120-4988,,Altzibar Bat,43.292445,-1.859067,1.0,,0,,,,0,,
101120-4989,,Altzibar Bi,43.293164,-1.857094,1.0,,0,,,,0,,
101120-4985,,Elorrondo 1,43.296118,-1.858136,1.0,,0,,,,0,,
101120-4990,,Elorrondo 2,43.297595,-1.861683,1.0,,0,,,,0,,
101120-4991,,Anbulategia,43.29893,-1.861066,1.0,,0,,,,0,,
101120-4992,,Yon OÃ±atibia,43.299197,-1.860778,1.0,,0,,,,0,,
101120-4993,,Mendin,43.303785,-1.873971,1.0,,0,,,,0,,
101120-4994,,Larrezabaleta,43.309382,-1.873547,1.0,,0,,,,0,,
101120-4995,,Ganboxa Bidea,43.308557,-1.876682,1.0,,0,,,,0,,
101120-126,,Iparralde Etorbidea-eliza,43.300109,-1.860132,1.0,,0,,,,0,,
101120-4831,,Gurutze,43.309547,-1.843236,1.0,,0,,,,0,,
101120-4832,,Ergoien,43.28811,-1.837269,1.0,,0,,,,0,,
101120-4833,,Altzibar,43.292857,-1.855238,1.0,,0,,,,0,,
101120-4834,,Karrika,43.282909,-1.852775,1.0,,0,,,,0,,
101120-133,,Iturriotz,43.293178,-1.865747,1.0,,0,,,,0,,
101120-134,,Ibarre,43.296268,-1.872297,1.0,,0,,,,0,,
101120-4108,,Rotonda Karaez Kalea 20,43.299214,-1.867854,1.0,,0,,,,0,,
101120-135,,Ugaldetxo,43.299052,-1.877017,1.0,,0,,,,0,,
101120-4300,,Caserio Mendin,43.303462,-1.874125,1.0,,0,,,,0,,
101122-5759,,Xenpelar,43.312958,-1.900523,1.0,,0,,,,0,,
101122-5691,,Aiako Harria,43.312701,-1.905682,1.0,,0,,,,0,,
101122-5732,,Niessen,43.314737,-1.90017,1.0,,0,,,,0,,
101122-34,,Gamon Zumardia,43.312579,-1.896695,1.0,,0,,,,0,,
101122-5755,,Touring Piscinas,43.308468,-1.891578,1.0,,0,,,,0,,
101122-5707,,Fanderia 17,43.308466,-1.887645,1.0,,0,,,,0,,
101122-5742,,Ramon Astibia 15,43.307635,-1.889214,1.0,,0,,,,0,,
101122-5741,,R. M.azkue,43.308677,-1.893547,1.0,,0,,,,0,,
101122-5744,,Rotonda Gaztelutxo,43.309834,-1.89688,1.0,,0,,,,0,,
101122-5689,,Agustinas 4,43.30764,-1.895292,1.0,,0,,,,0,,
101122-5706,,Elias Salaberria,43.307208,-1.893475,1.0,,0,,,,0,,
101122-5728,,Markola 41,43.306892,-1.892482,1.0,,0,,,,0,,
101122-5727,,Markola 25,43.307924,-1.892969,1.0,,0,,,,0,,
101122-5726,,Markola 3,43.306904,-1.894652,1.0,,0,,,,0,,
101122-5690,,Agustinas 40,43.306309,-1.89364,1.0,,0,,,,0,,
101122-5688,,Agustinas 15,43.30345,-1.892249,1.0,,0,,,,0,,
101122-5717,,Hijas De La Cruz,43.301945,-1.892979,1.0,,0,,,,0,,
101122-5705,,Cementerio Zentolen,43.300323,-1.89291,1.0,,0,,,,0,,
101122-5704,,Butano,43.297084,-1.893203,1.0,,0,,,,0,,
101122-5752,,Talleres Zamalbide,43.295698,-1.895102,1.0,,0,,,,0,,
101122-5746,,Sagardiburu 1,43.295325,-1.895651,1.0,,0,,,,0,,
101122-6558,,Sagardiburu 2,43.293299,-1.897512,1.0,,0,,,,0,,
101122-5743,,Rotonda Egiburuberri,43.291523,-1.90102,1.0,,0,,,,0,,
101122-5761,,Zamalbide Ermita,43.291095,-1.906144,1.0,,0,,,,0,,
101122-5754,,Tolareberri,43.28837,-1.908337,1.0,,0,,,,0,,
101122-5708,,Floreaga Bidea,43.284265,-1.914154,1.0,,0,,,,0,,
101122-5737,,Perurena,43.282,-1.913677,1.0,,0,,,,0,,
101122-5719,,IntziÃ±arte,43.285907,-1.911635,1.0,,0,,,,0,,
101122-5762,,Zamalbide Ermita 2,43.291277,-1.905364,1.0,,0,,,,0,,
101122-5733,,P.i. Masti Loidi,43.302342,-1.90429,1.0,,0,,,,0,,
101122-5699,,Arramendi,43.306168,-1.903272,1.0,,0,,,,0,,
101122-5739,,Pontika,43.309269,-1.90366,1.0,,0,,,,0,,
101122-5729,,Morrongilleta,43.312475,-1.901851,1.0,,0,,,,0,,
101122-5710,,Galtzaraborda 30,43.311915,-1.9045,1.0,,0,,,,0,,
101122-5756,,Urbia Enparantza,43.311683,-1.905602,1.0,,0,,,,0,,
101122-5718,,Instituto,43.310908,-1.908378,1.0,,0,,,,0,,
101122-5711,,Galtzaraborda 49,43.311114,-1.911124,1.0,,0,,,,0,,
101122-5751,,Supermerkatua,43.311805,-1.912739,1.0,,0,,,,0,,
101122-5713,,Galtzaraborda Igerilekuak,43.313301,-1.911899,1.0,,0,,,,0,,
101122-5698,,Anbulategia,43.313859,-1.910939,1.0,,0,,,,0,,
101122-5694,,Alaberga 52,43.314919,-1.907874,1.0,,0,,,,0,,
101122-5695,,Alaberga 72,43.316142,-1.906767,1.0,,0,,,,0,,
101122-5715,,Gamon Ikastola,43.317693,-1.907899,1.0,,0,,,,0,,
101122-193,,Sorgintxulo 11,43.316376,-1.90955,1.0,,0,,,,0,,
101122-5722,,Kaia,43.317464,-1.911245,1.0,,0,,,,0,,
101122-5703,,Biteri 45,43.314488,-1.903233,1.0,,0,,,,0,,
101122-5763,,Zumardia,43.312606,-1.89667,1.0,,0,,,,0,,
101122-5760,,Zamalbide Casco,43.291836,-1.904503,1.0,,0,,,,0,,
101122-5702,,Beraun 15,43.309292,-1.908851,1.0,,0,,,,0,,
101122-5723,,Koldo Mitxelena,43.310918,-1.908464,1.0,,0,,,,0,,
101122-5736,,Parke 26,43.312015,-1.908272,1.0,,0,,,,0,,
101122-2557,,Urdaburu Kalea 46,43.312075,-1.91181,1.0,,0,,,,0,,
101122-5730,,Murumendi 8,43.312121,-1.911883,1.0,,0,,,,0,,
101122-5758,,Versalles,43.317693,-1.907936,1.0,,0,,,,0,,
101122-5692,,Alaberga 103,43.316169,-1.906767,1.0,,0,,,,0,,
101122-5753,,Telefonika,43.315212,-1.907413,1.0,,0,,,,0,,
101122-5714,,Galtzaraborda Piscinas,43.313319,-1.911886,1.0,,0,,,,0,,
101122-5712,,Galtzaraborda 61,43.311788,-1.912826,1.0,,0,,,,0,,
101122-5693,,Alaberga 40,43.313076,-1.90718,1.0,,0,,,,0,,
101122-5720,,Irumugarrieta Con Ernio,43.313378,-1.909591,1.0,,0,,,,0,,
101122-5747,,San Markos 1,43.311784,-1.913381,1.0,,0,,,,0,,
101122-5748,,San Markos 15,43.310422,-1.914971,1.0,,0,,,,0,,
101122-5716,,Gerontologikoa,43.305947,-1.916,1.0,,0,,,,0,,
101122-5745,,Rotonda San Markosene,43.307616,-1.916365,1.0,,0,,,,0,,
101122-5734,,P.i. Txirrita-maleo Danona,43.304086,-1.908722,1.0,,0,,,,0,,
101122-5735,,P.i. Txirrita-maleo Txirrita,43.302277,-1.90603,1.0,,0,,,,0,,
101122-5749,,Sorgintxulo Dir Lartzabal,43.31633,-1.90944,1.0,,0,,,,0,,
101122-216,,Nafarroa Hirib. 75,43.314823,-1.902561,1.0,,0,,,,0,,
101122-1723,,Lartzabal1,43.308534,-1.882588,1.0,,0,,,,0,,
101122-5725,,Lartzabal Anbulategia,43.308788,-1.881869,1.0,,0,,,,0,,
101122-5724,,Lartzabal,43.310817,-1.888675,1.0,,0,,,,0,,
101122-5709,,Gabierrota,43.310675,-1.890737,1.0,,0,,,,0,,
101122-79,,Gamon Zumardia,43.312797,-1.896962,1.0,,0,,,,0,,
101122-1713,,Rotonda Galicia,43.3149,-1.900266,1.0,,0,,,,0,,
101122-138,,Diputazio Pl.,43.314959,-1.90267,1.0,,0,,,,0,,
101122-5740,,Puerto,43.317463,-1.91212,1.0,,0,,,,0,,
101122-179,,Sorgintxulo 11,43.316332,-1.909637,1.0,,0,,,,0,,
101122-5697,,Ambulatorio,43.313699,-1.911176,1.0,,0,,,,0,,
101122-5738,,Plaza Urbia,43.31153,-1.905666,1.0,,0,,,,0,,
101122-5757,,Urdaburu 25,43.312635,-1.910973,1.0,,0,,,,0,,
101122-5701,,Beraun - Estadio,43.30969,-1.911877,1.0,,0,,,,0,,
101122-187,,C/beraun,43.309282,-1.908814,1.0,,0,,,,0,,
101126-75,,Bizkaia,43.283904,-2.176161,3.0,,0,,,,0,,
101126-667,,Urkidi,43.283664,-2.179097,3.0,,0,,,,0,,
101126-645,,Sarakatua,43.284216,-2.17955,3.0,,0,,,,0,,
101126-652,,Allemendi,43.284986,-2.181409,3.0,,0,,,,0,,
101126-658,,Barandiaran,43.283856,-2.180741,3.0,,0,,,,0,,
101126-660,,Nafarroa,43.286664,-2.174934,3.0,,0,,,,0,,
101126-4908,,Antoniano,43.285585,-2.173303,3.0,,0,,,,0,,
101126-664,,Geltokia,43.28439,-2.170878,3.0,,0,,,,0,,
101126-659,,Eguneko Zentroa,43.284992,-2.165602,3.0,,0,,,,0,,
101126-662,,IÃ±urritza (Ikastola),43.284618,-2.160387,3.0,,0,,,,0,,
101126-699,,Talaimendi N-634,43.284149,-2.156347,3.0,,0,,,,0,,
101126-661,,MÂª Etxetxiki,43.282953,-2.160938,3.0,,0,,,,0,,
101126-693,,MÂª Etxetxiki Buztinzuri (Orokieta),43.280965,-2.16169,3.0,,0,,,,0,,
101126-663,,Itxasmendi,43.280931,-2.159922,3.0,,0,,,,0,,
101126-813,,Araba - Hegoalde,43.280818,-2.16524,3.0,,0,,,,0,,
101126-665,,Kiroldegia,43.280979,-2.168867,3.0,,0,,,,0,,
101126-657,,Azken Portu,43.281977,-2.174785,3.0,,0,,,,0,,
101126-666,,Urdaneta - Lanpardo,43.279643,-2.174702,3.0,,0,,,,0,,
101126-3216,,La Salle Ikastetxea,43.278815,-2.175921,3.0,,0,,,,0,,
101126-4468,,Lanpardo - Izeta Plaza,43.281013,-2.176035,3.0,,0,,,,0,,
101126-655,,Anbulategia,43.282023,-2.178141,3.0,,0,,,,0,,
101126-672,,Bixkonde,43.286824,-2.175214,3.0,,0,,,,0,,
101126-673,,Bizkaia 2,43.283637,-2.175701,3.0,,0,,,,0,,
101126-678,,Pontalier,43.284711,-2.160041,3.0,,0,,,,0,,
101126-422,,Nafarroa-IÃ±urritza,43.28586,-2.162761,3.0,,0,,,,0,,
101126-414,,Nafarroa Kalea- Gurutze Gorria,43.286069,-2.169192,3.0,,0,,,,0,,
101126-676,,Hiruerreketa,43.283117,-2.18462,3.0,,0,,,,0,,
101126-677,,Hiruerreketa Parkina,43.281943,-2.189609,3.0,,0,,,,0,,
101117-1359,,"Santa Fe,47 (zaldibia)",43.03657,-2.150016,5.0,,0,,,,0,,
101117-1361,,"Elbarren Auzoa,11 (zaldibia)",43.041279,-2.151092,5.0,,0,,,,0,,
101117-2479,,Zelaa Hotela,43.047019,-2.154021,5.0,,0,,,,0,,
101117-5215,,Elbarrena Auzoa,43.049147,-2.160573,5.0,,0,,,,0,,
101117-4164,,"Txindoki Kalea, 2 Parean",43.054721,-2.167938,5.0,,0,,,,0,,
101117-4148,,"Euskal Pilota, 5",43.05392,-2.171731,5.0,,0,,,,0,,
101117-4149,,Bizkaia Pasealekua,43.053928,-2.175317,5.0,,0,,,,0,,
101117-1227,,Arana Kalea,43.055247,-2.177251,5.0,,0,,,,0,,
101117-4400,,Erdigunea,43.054098,-2.180263,5.0,,0,,,,0,,
101117-1345,,"Urdaneta, 46",43.053845,-2.183889,5.0,,0,,,,0,,
101117-1972,,Malkasko,43.054698,-2.187279,5.0,,0,,,,0,,
101117-1362,,Ezkiaga 18 Parean,43.051799,-2.189957,5.0,,0,,,,0,,
101117-1346,,"Esteban Lasa, 7",43.04784,-2.195522,5.0,,0,,,,0,,
101117-1347,,"San Inazio Kalea, 14",43.047157,-2.198269,5.0,,0,,,,0,,
101117-1285,,"Oriamendi,32",43.047344,-2.203141,5.0,,0,,,,0,,
101117-1349,,Igartza Oleta 2,43.047795,-2.209753,5.0,,0,,,,0,,
101117-1350,,"Loinazpe Bhi , Igartza Oleta,14",43.046445,-2.213736,5.0,,0,,,,0,,
101117-4150,,"Carretera N-1 Madrid Irun,7 (olaberria)",43.042358,-2.216526,5.0,,0,,,,0,,
101117-2488,,Yurre Gasolindegia,43.038813,-2.216951,5.0,,0,,,,0,,
101117-5217,,Aristrain,43.035794,-2.217972,5.0,,0,,,,0,,
101117-4154,,"Diseminado Rural, Cerca De NÂº45",43.023982,-2.224897,5.0,,0,,,,0,,
101117-4155,,"Diseminado Rural,22 (idiazabal)",43.022082,-2.230296,5.0,,0,,,,0,,
101117-4157,,"Kale Nagusia,6 (idiazabal)",43.014982,-2.232274,5.0,,0,,,,0,,
101117-1365,,Idiazabal Erdigunea,43.011741,-2.2338,5.0,,0,,,,0,,
101117-4256,,"Kale Nagusia,6 Parean",43.014882,-2.232165,5.0,,0,,,,0,,
101117-6074,,Poyam,43.021561,-2.23045,5.0,,0,,,,0,,
101117-6077,,Ampo,43.023126,-2.232799,5.0,,0,,,,0,,
101117-5216,,Gi-2637,43.021978,-2.237673,5.0,,0,,,,0,,
101117-4184,,Poligono Goardia,43.017414,-2.247375,5.0,,0,,,,0,,
101117-1387,,"Segura Barreiatua,28 (segura)",43.014013,-2.250473,5.0,,0,,,,0,,
101117-1388,,"Kale Nagusia,7 (segura)",43.010809,-2.252242,5.0,,0,,,,0,,
101117-1389,,"Kale Nagusia,31 (segura)",43.008423,-2.253633,5.0,,0,,,,0,,
101117-1390,,"Segura Barreiatua,66",43.005204,-2.261328,5.0,,0,,,,0,,
101117-5218,,Barreiatua,43.002054,-2.267132,5.0,,0,,,,0,,
101117-4186,,"Segura Barreiatua, 83",42.995522,-2.272264,5.0,,0,,,,0,,
101117-502,,"Gi-2637 Barrenaldea Auzoa 6, Parean",42.988925,-2.277138,5.0,,0,,,,0,,
101117-4188,,"Ondaraldea,17",42.985345,-2.283398,5.0,,0,,,,0,,
101117-4190,,"Ondaraldea,4 (zegama)",42.983435,-2.287591,5.0,,0,,,,0,,
101117-1382,,Farmazi (zegama),42.97907,-2.289395,5.0,,0,,,,0,,
101117-4827,,Elizalde Kalea,42.976206,-2.290899,5.0,,0,,,,0,,
101117-7615,,Olaberri,42.972398,-2.292464,5.0,,0,,,,0,,
101117-4192,,"Juan Telleria,6",42.975954,-2.290853,5.0,,0,,,,0,,
101117-4826,,Hermanos Aseginolaza Kalea,42.978257,-2.289024,5.0,,0,,,,0,,
101117-4191,,"Ondaraldea,4 (zegama)",42.983631,-2.287306,5.0,,0,,,,0,,
101117-4189,,"Ondaraldea,17 (zegama)",42.984887,-2.283735,5.0,,0,,,,0,,
101117-200,,Gi-2637 Barrenaldea Auzoa 6,42.988916,-2.277052,5.0,,0,,,,0,,
101117-4187,,"Segura Barreiatua,83",42.995467,-2.272129,5.0,,0,,,,0,,
101117-1971,,Barreiatua,43.002134,-2.266971,5.0,,0,,,,0,,
101117-1383,,Zeraingo Bidegurutzea,43.005105,-2.261341,5.0,,0,,,,0,,
101117-1384,,"Kale Nagusia,31 (segura)",43.008378,-2.253609,5.0,,0,,,,0,,
101117-1385,,"Kale Nagusia,7 (segura)",43.01089,-2.252167,5.0,,0,,,,0,,
101117-1386,,"Segura Barreiatua,28 (segura)",43.013841,-2.250364,5.0,,0,,,,0,,
101117-4185,,Poligono Goardia,43.01701,-2.247491,5.0,,0,,,,0,,
101117-5213,,Gi-2637,43.021879,-2.237674,5.0,,0,,,,0,,
101117-4182,,Diseminado Rural (idiazabal),43.023132,-2.227043,5.0,,0,,,,0,,
101117-4158,,"Diseminado Rural, Cerca De NÂº45 (idiazabal)",43.024202,-2.22417,5.0,,0,,,,0,,
101117-1367,,"Sector 201 , 16 (olaberria)",43.028733,-2.21908,5.0,,0,,,,0,,
101117-4159,,"Cari De La Cruz,23 (olaberria)",43.035198,-2.217758,5.0,,0,,,,0,,
101117-1368,,"Cari De La Cruz,2 (olaberria)",43.037946,-2.216631,5.0,,0,,,,0,,
101117-4160,,"Carretera N-1 Madrid Irun,7 (olaberria)",43.041439,-2.2165,5.0,,0,,,,0,,
101117-2000,,Antzizar Kiroldegia,43.046223,-2.214242,5.0,,0,,,,0,,
101117-1370,,Igartza,43.046829,-2.210661,5.0,,0,,,,0,,
101117-4401,,Tren Geltokia,43.046348,-2.202392,5.0,,0,,,,0,,
101117-1341,,Bernedo,43.046005,-2.197105,5.0,,0,,,,0,,
101117-4161,,Zaldizurreta,43.046508,-2.194311,5.0,,0,,,,0,,
101117-1342,,"Joan Xxiii, 12",43.051816,-2.189785,5.0,,0,,,,0,,
101117-1973,,Malkasko 2,43.054661,-2.187267,5.0,,0,,,,0,,
101117-1343,,Kale Berri,43.052828,-2.182748,5.0,,0,,,,0,,
101117-934,,Geltokia,43.052838,-2.179138,5.0,,0,,,,0,,
101117-4162,,Joseba Rezola Pasealekua,43.053401,-2.175999,5.0,,0,,,,0,,
101117-4163,,"Euskal Pilota, 5",43.054035,-2.171521,5.0,,0,,,,0,,
101117-4147,,"Txindoki Kalea, 2",43.054703,-2.167963,5.0,,0,,,,0,,
101117-5214,,Carretera Zaldibia,43.048909,-2.160073,5.0,,0,,,,0,,
101117-1372,,"Elbarren Auzoa,11 (zaldibia)",43.041115,-2.150898,5.0,,0,,,,0,,
101117-1373,,"Santa Fe,18",43.038188,-2.150853,5.0,,0,,,,0,,
101117-4402,,"Zumarralde,2",43.043786,-2.256421,5.0,,0,,,,0,,
101117-4307,,Alegi Auzoa,43.053004,-2.262915,5.0,,0,,,,0,,
101117-1394,,Gabiria Erdigunea,43.050498,-2.279534,5.0,,0,,,,0,,
101117-5415,,Arama,43.06246,-2.164776,5.0,,0,,,,0,,
101117-4269,,Altzaga,43.064274,-2.154251,5.0,,0,,,,0,,
101117-1378,,Gaintza Erdigunea,43.053418,-2.133206,5.0,,0,,,,0,,
101117-4886,,Mendizabal Baserria,43.051496,-2.130262,5.0,,0,,,,0,,
101117-4887,,Otegi Enea Baserria,43.046099,-2.125145,5.0,,0,,,,0,,
101117-4545,,Zerain,43.012197,-2.271846,5.0,,0,,,,0,,
101117-1391,,Mutiloa Erdigunea,43.021453,-2.271798,5.0,,0,,,,0,,
101117-1501,,Altzagarate,43.07023,-2.152388,5.0,,0,,,,0,,
101117-1653,,Murkondo,43.062786,-2.147971,5.0,,0,,,,0,,
101117-5413,,Altzaga,43.064328,-2.154262,5.0,,0,,,,0,,
101117-1380,,Arama,43.062531,-2.164627,5.0,,0,,,,0,,
101117-4180,,Altamira,43.052395,-2.173765,5.0,,0,,,,0,,
101117-4151,,"Cari De La Cruz,12 (olaberria)",43.036649,-2.216635,5.0,,0,,,,0,,
101117-4152,,Sector 201 (olaberria),43.034048,-2.218104,5.0,,0,,,,0,,
101117-4153,,"Sector 201 , 16 (olaberria)",43.028922,-2.219078,5.0,,0,,,,0,,
101117-1334,,San Gregorio,42.978396,-2.180521,5.0,,0,,,,0,,
101117-5236,,Barandiaran,42.982648,-2.180722,5.0,,0,,,,0,,
101117-5235,,Matasoro,42.989028,-2.182649,5.0,,0,,,,0,,
101117-5234,,Rafaelenea,42.995484,-2.18011,5.0,,0,,,,0,,
101117-1335,,Arrondoa,42.998828,-2.179268,5.0,,0,,,,0,,
101117-5244,,Eskola,43.001553,-2.177551,5.0,,0,,,,0,,
101117-1336,,San Martin,43.006969,-2.176755,5.0,,0,,,,0,,
101117-5250,,Otadi,43.01283,-2.175474,5.0,,0,,,,0,,
101117-5663,,Zubikoeta,43.015577,-2.176775,5.0,,0,,,,0,,
101117-5662,,Amebi,43.02062,-2.178058,5.0,,0,,,,0,,
101117-5239,,Zubierreka Poligonoa,43.023595,-2.180976,5.0,,0,,,,0,,
101117-1337,,Hirigoien,43.029416,-2.184041,5.0,,0,,,,0,,
101117-1338,,"Hirigoien Kalea, 14",43.032001,-2.185467,5.0,,0,,,,0,,
101117-1339,,Lazkaoko Eliza,43.035268,-2.186381,5.0,,0,,,,0,,
101117-1340,,Hiribarren,43.036945,-2.187943,5.0,,0,,,,0,,
101117-6071,,Senpere Auzoa 4,43.043849,-2.1914,5.0,,0,,,,0,,
101117-1231,,Itsasondoko Anbulatorioa,43.069142,-2.163567,5.0,,0,,,,0,,
101117-5518,,Berostegi,43.077586,-2.159608,5.0,,0,,,,0,,
101117-1233,,Legorreta,43.085794,-2.150502,5.0,,0,,,,0,,
101117-4710,,Sagardotegia,43.085336,-2.145742,5.0,,0,,,,0,,
101117-5412,,Geltokia,43.084939,-2.142111,5.0,,0,,,,0,,
101117-5237,,Legorreta 2,43.08501,-2.141999,5.0,,0,,,,0,,
101117-5238,,Sagardotegia,43.085388,-2.145545,5.0,,0,,,,0,,
101117-1220,,Legorreta,43.085886,-2.150673,5.0,,0,,,,0,,
101117-1974,,Berostegi,43.077604,-2.159644,5.0,,0,,,,0,,
101117-1222,,Itsasondoko Plaza,43.067558,-2.164964,5.0,,0,,,,0,,
101117-1351,,"Hiribarren, 14",43.037009,-2.188065,5.0,,0,,,,0,,
101117-1352,,Erdigunea,43.035295,-2.186418,5.0,,0,,,,0,,
101117-5257,,Hirigoien Kalea,43.031822,-2.185494,5.0,,0,,,,0,,
101117-9010,,"Hirigoien, 2",43.02939,-2.184176,5.0,,0,,,,0,,
101117-5240,,Amebi,43.020585,-2.178181,5.0,,0,,,,0,,
101117-5241,,Zubikoeta,43.015941,-2.177249,5.0,,0,,,,0,,
101117-1355,,San Martin,43.006933,-2.176841,5.0,,0,,,,0,,
101117-1356,,Arrondoa,42.998874,-2.179341,5.0,,0,,,,0,,
101117-5664,,Rafaelenea,42.995539,-2.180244,5.0,,0,,,,0,,
101117-1357,,San Gregorio,42.978334,-2.180681,5.0,,0,,,,0,,
101117-5255,,Bastarrika,42.973317,-2.18054,5.0,,0,,,,0,,
101117-1358,,Ergoiena,42.96535,-2.175814,5.0,,0,,,,0,,
101117-1977,,San Juan,43.059642,-2.172342,5.0,,0,,,,0,,
101117-5222,,Gi-3352,43.063345,-2.256614,5.0,,0,,,,0,,
101117-2004,,Itsaso Erdigunea,43.072473,-2.257462,5.0,,0,,,,0,,
101117-1976,,Aia Auzoa,42.966395,-2.154919,5.0,,0,,,,0,,
101117-1332,,Kaxeta,42.958312,-2.156562,5.0,,0,,,,0,,
101117-1975,,Atxurrena,42.963058,-2.16893,5.0,,0,,,,0,,
101117-5247,,Sarriarte,42.964341,-2.173302,5.0,,0,,,,0,,
101117-1333,,Ergoiena,42.96535,-2.175827,5.0,,0,,,,0,,
101117-5248,,Bastarrika,42.973525,-2.180623,5.0,,0,,,,0,,
101117-4708,,Otegi Enea Baserria,43.046143,-2.125009,5.0,,0,,,,0,,
101117-4707,,Mendizabal Baserria,43.051568,-2.130261,5.0,,0,,,,0,,
101117-5221,,Bajada De Gabiria Hacia Pavimentos Arrondo,43.050785,-2.289513,5.0,,0,,,,0,,
101117-5220,,Arrondoko Kruzea,43.051181,-2.292357,5.0,,0,,,,0,,
101117-5219,,Baztarrika,43.048204,-2.285577,5.0,,0,,,,0,,
101117-3683,,Ugarana,43.046669,-2.283495,5.0,,0,,,,0,,
101117-6101,,Renfe Geltokia,43.087054,-2.320214,5.0,,0,,,,0,,
101117-4380,,Elizalde,43.089166,-2.313384,5.0,,0,,,,0,,
101117-7738,,San Gregorio 4,43.086729,-2.311003,5.0,,0,,,,0,,
101117-531,,Izazpi,43.084777,-2.317401,5.0,,0,,,,0,,
101117-3820,,Argixao 6,43.083693,-2.315239,5.0,,0,,,,0,,
101117-942,,Zumarragako Ospitalea,43.083366,-2.313314,5.0,,0,,,,0,,
101117-4374,,Izazpe,43.084848,-2.31713,5.0,,0,,,,0,,
101117-4394,,Marquesina. Direccion Beasain,43.075519,-2.290505,5.0,,0,,,,0,,
101117-1500,,Ezkio Itsaso Udaletxea,43.067842,-2.282573,5.0,,0,,,,0,,
101117-4816,,Errekabarrena 1,43.065586,-2.277441,5.0,,0,,,,0,,
101117-4395,,Santa Luzia,43.062086,-2.273577,5.0,,0,,,,0,,
101117-3245,,Santa Luzia 2,43.059985,-2.270421,5.0,,0,,,,0,,
101117-4308,,Alegi Auzoa,43.052111,-2.262742,5.0,,0,,,,0,,
101117-4396,,San Andres,43.042635,-2.25253,5.0,,0,,,,0,,
101117-4711,,Aranberri Auzoa,43.042466,-2.245977,5.0,,0,,,,0,,
101117-1377,,Salbatore Auzoa,43.049802,-2.228022,5.0,,0,,,,0,,
101117-5254,,Sarriarte,42.964286,-2.173131,5.0,,0,,,,0,,
101117-5666,,Atxurrenea,42.963022,-2.169004,5.0,,0,,,,0,,
101117-1398,,Kaxeta Ataun,42.958213,-2.156563,5.0,,0,,,,0,,
101117-4709,,Mutiloa Erdigunea,43.021454,-2.271847,5.0,,0,,,,0,,
101117-1392,,Zerain,43.012234,-2.27203,5.0,,0,,,,0,,
101117-1531,,Senpere Auzoa 5,43.044512,-2.190998,5.0,,0,,,,0,,
101117-1891,,Lazkaibar Kalea S/n,43.049627,-2.188389,5.0,,0,,,,0,,
101117-1374,,"Gudugarreta ,4",43.048983,-2.230807,5.0,,0,,,,0,,
101117-4712,,Aranberri Auzoa,43.042565,-2.246037,5.0,,0,,,,0,,
101117-3244,,Santa Luzia 2,43.060048,-2.270334,5.0,,0,,,,0,,
101117-4403,,Santa Luzia,43.062609,-2.273767,5.0,,0,,,,0,,
101117-3236,,"Errekabarrena 1, Parean",43.065793,-2.277512,5.0,,0,,,,0,,
101117-5365,,Ezkio Itsaso Udaletxea,43.067794,-2.281984,5.0,,0,,,,0,,
101117-4404,,Marmoles IpiÃ±arrieta,43.077169,-2.292291,5.0,,0,,,,0,,
101117-3414,,Eizaga,43.086643,-2.310169,5.0,,0,,,,0,,
101117-4375,,"Elizkale Kalea, 13",43.088928,-2.312846,5.0,,0,,,,0,,
101117-5416,,Murkondo,43.062742,-2.148033,5.0,,0,,,,0,,
101117-5410,,Igartubeiti Museoa,43.07444,-2.28499,5.0,,0,,,,0,,
101117-5223,,Ezkio Baserriak,43.078265,-2.283152,5.0,,0,,,,0,,
101117-2003,,Ezkio Erdigunea,43.080908,-2.275296,5.0,,0,,,,0,,
101117-5411,,Ezkio Baserriak,43.078319,-2.283151,5.0,,0,,,,0,,
101117-5258,,"Hirigoien Kalea, 3",43.033177,-2.186102,5.0,,0,,,,0,,
101117-3249,,Errekalde Auzoa,43.028911,-2.190332,5.0,,0,,,,0,,
101117-1393,,"Zebazelai,9 (olaberria)",43.026303,-2.204849,5.0,,0,,,,0,,
101117-5232,,Txakolindegi,43.030558,-2.210833,5.0,,0,,,,0,,
101117-5230,,Igerilekua,43.038068,-2.216077,5.0,,0,,,,0,,
101117-5231,,Txakolindegi,43.030514,-2.21092,5.0,,0,,,,0,,
101117-2489,,Errekalde Auzoa,43.028875,-2.190271,5.0,,0,,,,0,,
101117-3163,,Fp Goierri,43.047301,-2.182956,5.0,,0,,,,0,,
101117-1363,,Iurre,43.038662,-2.21726,5.0,,0,,,,0,,
101118-5562,,Zinkoenea 2,43.267856,-1.973321,1.0,,0,,,,0,,
101118-1381,,Sidrerias Hernani,43.265976,-1.970494,1.0,,0,,,,0,,
101118-5547,,Zinkoenea,43.268282,-1.973634,1.0,,0,,,,0,,
101118-5558,,Elkano,43.26704,-1.976736,1.0,,0,,,,0,,
101118-5548,,Florida 23 (lidl),43.270322,-1.971222,1.0,,0,,,,0,,
101118-5549,,Florida 69 ( Etxe Haundi),43.271959,-1.966967,1.0,,0,,,,0,,
101118-5550,,Florida 100,43.272451,-1.96569,1.0,,0,,,,0,,
101118-5551,,Etxeberri (frontoia),43.273462,-1.965919,1.0,,0,,,,0,,
101118-5552,,Cumbre,43.273391,-1.96406,1.0,,0,,,,0,,
101118-5553,,Bestizan,43.273023,-1.963129,1.0,,0,,,,0,,
101118-5554,,Bolatoki,43.272369,-1.965506,1.0,,0,,,,0,,
101118-5555,,Florida 69 (etxe Haundi 2),43.272041,-1.967151,1.0,,0,,,,0,,
101118-5556,,Sagastialde,43.271684,-1.970472,1.0,,0,,,,0,,
101118-5557,,Antziola,43.27237,-1.976708,1.0,,0,,,,0,,
101118-2501,,Antziola Auzoa 17,43.271503,-1.97639,1.0,,0,,,,0,,
101118-2516,,Antziola 10,43.269612,-1.975337,1.0,,0,,,,0,,
101118-5177,,Urbieta Kalea,43.267512,-1.977122,1.0,,0,,,,0,,
101118-4102,,Izpizua Kalea - Aratz Ikastetxea,43.26506,-1.978863,1.0,,0,,,,0,,
101118-5563,,ZikuÃ±aga Goia,43.26209,-1.967984,1.0,,0,,,,0,,
101118-5564,,ZikuÃ±aga Auzoa,43.263472,-1.968429,1.0,,0,,,,0,,
101118-1734,,Karabel Biribilgunea,43.266029,-1.968423,1.0,,0,,,,0,,
101118-337,,Santa Barbara Bailara - Hilerria,43.26185,-1.979398,1.0,,0,,,,0,,
101118-1610,,Karabel Zubia,43.265912,-1.97047,1.0,,0,,,,0,,
101118-2524,,Marieluts,43.269436,-1.980811,1.0,,0,,,,0,,
101118-5559,,Osasun Zentroa,43.267586,-1.977367,1.0,,0,,,,0,,
101118-5561,,Institutoa,43.261797,-1.979522,1.0,,0,,,,0,,
101118-1614,,Portu,43.263209,-1.974212,1.0,,0,,,,0,,
101116-1094,,Errezilgo Plaza,43.164876,-2.174145,4.0,,0,,,,0,,
101116-4245,,Intsausti,43.167781,-2.177428,4.0,,0,,,,0,,
101116-4246,,Loidi,43.170277,-2.195393,4.0,,0,,,,0,,
101116-4247,,Bentaberri,43.174366,-2.205785,4.0,,0,,,,0,,
101116-4248,,Irurena,43.178716,-2.236378,4.0,,0,,,,0,,
101116-1107,,Landeta,43.177674,-2.258698,4.0,,0,,,,0,,
101116-1108,,"Artzubia Hiribidea, 35 - Garmendipe",43.179951,-2.262633,4.0,,0,,,,0,,
101116-1055,,Anbulategia,43.181318,-2.268006,4.0,,0,,,,0,,
101116-942,,Zumarragako Ospitalea,43.083366,-2.313314,5.0,,0,,,,0,,
101116-4374,,Izazpe,43.084848,-2.31713,5.0,,0,,,,0,,
101116-1660,,Renfe Geltokia,43.087074,-2.320521,5.0,,0,,,,0,,
101116-4380,,Elizalde,43.089166,-2.313384,5.0,,0,,,,0,,
101116-7738,,San Gregorio 4,43.086729,-2.311003,5.0,,0,,,,0,,
101116-4828,,Etxeberri,43.099748,-2.316706,5.0,,0,,,,0,,
101116-6102,,AgiÃ±era Bidegurutzea,43.111465,-2.322967,5.0,,0,,,,0,,
101116-1075,,Aizpurutxo,43.133056,-2.352127,4.0,,0,,,,0,,
101116-1073,,Olotzaga,43.165096,-2.33047,4.0,,0,,,,0,,
101116-1070,,Azkoitiko Industrialdea,43.17244,-2.322183,4.0,,0,,,,0,,
101116-6103,,Altzibar,43.175523,-2.318138,4.0,,0,,,,0,,
101116-1084,,San Martin,43.176113,-2.312878,4.0,,0,,,,0,,
101116-4035,,Munibe,43.177071,-2.309065,4.0,,0,,,,0,,
101116-1085,,Txerloia,43.173461,-2.301786,4.0,,0,,,,0,,
101116-1032,,Munategi,43.174239,-2.290593,4.0,,0,,,,0,,
101116-1033,,Loiola,43.175961,-2.279438,4.0,,0,,,,0,,
101116-1035,,Sanjuandegi,43.179041,-2.270925,4.0,,0,,,,0,,
101116-1034,,Anbulategia,43.181227,-2.267859,4.0,,0,,,,0,,
101116-1037,,Trenbidearen Museoa,43.185535,-2.261372,4.0,,0,,,,0,,
101116-1038,,Danona,43.208082,-2.254342,4.0,,0,,,,0,,
101116-1039,,Lasao,43.219192,-2.256829,4.0,,0,,,,0,,
101116-1040,,Alberdikoa,43.225479,-2.258575,4.0,,0,,,,0,,
101116-1041,,Bainuetxea,43.233558,-2.256137,4.0,,0,,,,0,,
101116-1042,,Zestoa,43.24066,-2.257024,4.0,,0,,,,0,,
101116-4806,,"Iraetabidea 10, Iraeta",43.254809,-2.26035,4.0,,0,,,,0,,
101116-6105,,Iraetako Geltokia,43.255016,-2.265818,4.0,,0,,,,0,,
101116-1088,,Arroaerreka,43.263731,-2.271221,4.0,,0,,,,0,,
101116-6106,,Arroabea,43.277529,-2.267531,4.0,,0,,,,0,,
101116-6107,,Narrondo,43.284581,-2.263478,3.0,,0,,,,0,,
101116-6108,,Patxita Etxezarreta,43.294145,-2.255436,3.0,,0,,,,0,,
101116-1118,,Zumaiako Geltokia,43.29193,-2.25121,3.0,,0,,,,0,,
101116-2862,,Donostiako Autobus Geltokia,43.316563,-1.977533,1.0,,0,,,,0,,
101116-482,,"Askatasunaren Etorb./avda. De La Libertad, 24",43.319593,-1.982082,1.0,,0,,,,0,,
101116-420,,Zumalakarregi Etorb. 14,43.314481,-2.002872,1.0,,0,,,,0,,
101116-346,,Tolosa Hiribidea - Magisteritza,43.311295,-2.00925,1.0,,0,,,,0,,
101116-826,,Unibertsitatea,43.306859,-2.008607,1.0,,0,,,,0,,
101116-4039,,Arroabea,43.268515,-2.271718,4.0,,0,,,,0,,
101116-1063,,Arroaerreka,43.263272,-2.271312,4.0,,0,,,,0,,
101116-1087,,Iraetako Geltokia,43.255102,-2.266581,4.0,,0,,,,0,,
101116-1066,,Iraeta,43.254819,-2.260461,4.0,,0,,,,0,,
101116-1049,,Zestoa,43.238587,-2.255398,4.0,,0,,,,0,,
101116-1050,,Bainuetxea,43.23124,-2.255525,4.0,,0,,,,0,,
101116-1051,,Alberdikoa,43.226906,-2.259272,4.0,,0,,,,0,,
101116-1052,,Lasao,43.217114,-2.257273,4.0,,0,,,,0,,
101116-1053,,Danona,43.207913,-2.254639,4.0,,0,,,,0,,
101116-1054,,Julian Elorza Etorbidea 3,43.185832,-2.262771,4.0,,0,,,,0,,
101116-1056,,Sanjuandegi,43.179176,-2.271021,4.0,,0,,,,0,,
101116-1057,,Loiola,43.176198,-2.279915,4.0,,0,,,,0,,
101116-1058,,Munategi,43.174329,-2.290604,4.0,,0,,,,0,,
101116-1067,,"Julio Urkixo, 40",43.17495,-2.305288,4.0,,0,,,,0,,
101116-1059,,"Julio Urkixo, 7",43.178293,-2.308535,4.0,,0,,,,0,,
101116-1068,,San Martin,43.176292,-2.312839,4.0,,0,,,,0,,
101116-1083,,Altzibar,43.175343,-2.318189,4.0,,0,,,,0,,
101116-1837,,Arroabea,43.268597,-2.271766,4.0,,0,,,,0,,
101116-202,,Tolosa Hiribidea - Amerika Plaza,43.302351,-2.003736,1.0,,0,,,,0,,
101116-377,,Tolosa Hiribidea - Lorea,43.305021,-2.006343,1.0,,0,,,,0,,
101116-203,,Tolosa Hiribidea 77 - Unibertsitateak,43.307182,-2.008416,1.0,,0,,,,0,,
101116-4038,,Tolosa Hiribidea 13 - Magisteritza,43.312275,-2.00699,1.0,,0,,,,0,,
101116-380,,Zumalakarregi Hiribidea 11 - Esklabak,43.314806,-2.001929,1.0,,0,,,,0,,
101116-4780,,Zubieta Plaza,43.315453,-1.987466,1.0,,0,,,,0,,
101116-4877,,"Askatasuna/libertad, 3",43.320399,-1.979614,1.0,,0,,,,0,,
101116-1092,,Artzubia Hiribidea - Garmendipe,43.179916,-2.262769,4.0,,0,,,,0,,
101116-1093,,Landeta,43.177603,-2.258748,4.0,,0,,,,0,,
101116-4220,,Irurena,43.178778,-2.236181,4.0,,0,,,,0,,
101116-4221,,Bentaberri,43.174278,-2.204875,4.0,,0,,,,0,,
101116-4222,,Loidi,43.170133,-2.195395,4.0,,0,,,,0,,
101116-4223,,Intsausti,43.167753,-2.177354,4.0,,0,,,,0,,
101116-7008,,Zumaiako Geltokia,43.291768,-2.251237,3.0,,0,,,,0,,
101116-6058,,Patxita Etxezarreta,43.294487,-2.256701,3.0,,0,,,,0,,
101116-1062,,Narrondo,43.28497,-2.265199,3.0,,0,,,,0,,
101116-1119,,Arroabea,43.277664,-2.267554,4.0,,0,,,,0,,
101116-1082,,Azkoitiko Industrialdea,43.172504,-2.322392,4.0,,0,,,,0,,
101116-1081,,Olotzaga,43.165885,-2.329895,4.0,,0,,,,0,,
101116-1080,,Aizpurutxo,43.132903,-2.352128,4.0,,0,,,,0,,
101116-6048,,AgiÃ±era Bidegurutzea,43.111366,-2.323054,5.0,,0,,,,0,,
101116-6062,,Etxeberri,43.099478,-2.316759,5.0,,0,,,,0,,
101116-6049,,Labeaga 14,43.091438,-2.315423,5.0,,0,,,,0,,
101116-4376,,IpiÃ±arrieta/berriki,43.088416,-2.320567,5.0,,0,,,,0,,
101116-945,,Poblado Aparicio,43.078824,-2.326312,5.0,,0,,,,0,,
101116-531,,Izazpi,43.084777,-2.317401,5.0,,0,,,,0,,
101116-4399,,Rondilla Kalea 34- Gorosabel,43.139234,-2.073489,2.0,,0,,,,0,,
101116-1097,,Renfe-jesuitinas,43.134648,-2.077641,2.0,,0,,,,0,,
101116-1104,,Benta Haundi,43.126209,-2.087516,2.0,,0,,,,0,,
101116-4236,,Otzarain,43.124204,-2.092402,2.0,,0,,,,0,,
101116-4237,,Urreta,43.125117,-2.120528,2.0,,0,,,,0,,
101116-4239,,Ugarte,43.128959,-2.128354,2.0,,0,,,,0,,
101116-4240,,Arkatzpe,43.129439,-2.132379,2.0,,0,,,,0,,
101116-4241,,Eliza,43.129727,-2.137084,2.0,,0,,,,0,,
101116-4242,,Gaiztarro,43.125549,-2.139442,2.0,,0,,,,0,,
101116-1100,,Santutxu,43.121955,-2.152559,2.0,,0,,,,0,,
101116-1102,,Zelai,43.133847,-2.159526,2.0,,0,,,,0,,
101116-1101,,Toki Alai,43.137329,-2.160388,2.0,,0,,,,0,,
101116-1105,,Bidegoiango Plaza,43.140126,-2.159883,2.0,,0,,,,0,,
101116-4243,,Izagirre,43.145652,-2.159512,2.0,,0,,,,0,,
101116-4254,,Ostatua,43.152644,-2.161249,4.0,,0,,,,0,,
101116-4227,,Ibarguren,43.159693,-2.161078,4.0,,0,,,,0,,
101116-4255,,Egurbide,43.164082,-2.162778,4.0,,0,,,,0,,
101116-4244,,Letea,43.164255,-2.166724,4.0,,0,,,,0,,
101116-1086,,Sebastopol-iraeta,43.253959,-2.259757,4.0,,0,,,,0,,
101116-1043,,Aizarnazabal,43.252264,-2.236162,3.0,,0,,,,0,,
101116-4042,,Zubialde,43.260255,-2.236752,3.0,,0,,,,0,,
101116-4044,,Etxabe,43.265825,-2.234859,3.0,,0,,,,0,,
101116-1044,,Oikiako Bidegurutzea,43.2752,-2.228296,3.0,,0,,,,0,,
101116-1045,,Meagas,43.281203,-2.209437,3.0,,0,,,,0,,
101116-4046,,Monte Albertia,43.283281,-2.178486,3.0,,0,,,,0,,
101116-424,,Torre Luzeako Parkea 2- Erdigunea,43.286668,-2.174878,3.0,,0,,,,0,,
101116-425,,Nafarroa Kalea- Sanzenea,43.285981,-2.169489,3.0,,0,,,,0,,
101116-426,,Nafarroa 54-iÃ±urritza,43.285626,-2.161556,3.0,,0,,,,0,,
101116-985,,San Antolin,43.227926,-2.402817,8.0,,0,,,,0,,
101116-987,,Mupen,43.217533,-2.411156,8.0,,0,,,,0,,
101116-900,,Txankakoa,43.215681,-2.416997,8.0,,0,,,,0,,
101116-993,,Azitain,43.189864,-2.455331,8.0,,0,,,,0,,
101116-4316,,Urkizu,43.186929,-2.462962,8.0,,0,,,,0,,
101116-1124,,"San Juan Kalea, 07",43.185244,-2.472391,8.0,,0,,,,0,,
101116-1408,,Unibertsitatea,43.180165,-2.48816,8.0,,0,,,,0,,
101116-6027,,"Baldespina Markesa, 14",43.186231,-2.503885,8.0,,0,,,,0,,
101116-1553,,"Bizkaia Etorbidea, 11",43.185724,-2.50336,8.0,,0,,,,0,,
101116-6029,,Unibertsitatea,43.178994,-2.490261,8.0,,0,,,,0,,
101116-850,,Unzaga,43.184004,-2.473054,8.0,,0,,,,0,,
101116-999,,Bidebarrieta,43.18564,-2.464598,8.0,,0,,,,0,,
101116-1000,,Azitain,43.189817,-2.454802,8.0,,0,,,,0,,
101116-4417,,Urazandi,43.216303,-2.413642,8.0,,0,,,,0,,
101116-6022,,Mupen,43.217362,-2.411133,8.0,,0,,,,0,,
101116-1008,,San Antolin,43.227798,-2.40256,8.0,,0,,,,0,,
101116-4315,,Txankakoa,43.215573,-2.417035,8.0,,0,,,,0,,
101116-669,,LarraÃ±aga,43.163976,-2.247399,4.0,,0,,,,0,,
101116-5319,,Urrestilla,43.157432,-2.245007,4.0,,0,,,,0,,
101116-679,,Makibar,43.15086,-2.238324,4.0,,0,,,,0,,
101116-668,,Atzaran-ugasaundi,43.146065,-2.232345,4.0,,0,,,,0,,
101116-5062,,Nuarbe,43.137836,-2.233801,4.0,,0,,,,0,,
101116-680,,Trintxera,43.132046,-2.215283,4.0,,0,,,,0,,
101116-5057,,Beizama Bildua- Frontoia,43.134072,-2.199704,4.0,,0,,,,0,,
101116-4224,,Letea,43.164265,-2.166921,4.0,,0,,,,0,,
101116-4225,,Egurbide,43.164126,-2.162654,4.0,,0,,,,0,,
101116-4226,,Ibarguren,43.159716,-2.161681,4.0,,0,,,,0,,
101116-4229,,Ostatua,43.152664,-2.161519,4.0,,0,,,,0,,
101116-4228,,Izagirre,43.14605,-2.159703,2.0,,0,,,,0,,
101116-1109,,Bidegoiango Plaza,43.140127,-2.159981,2.0,,0,,,,0,,
101116-1110,,Toki Alai,43.137448,-2.160559,2.0,,0,,,,0,,
101116-1112,,Santutxu,43.121646,-2.152256,2.0,,0,,,,0,,
101116-4231,,Gaiztarro,43.125602,-2.139379,2.0,,0,,,,0,,
101116-4232,,Eliza,43.129682,-2.137072,2.0,,0,,,,0,,
101116-4233,,Arkatzpe,43.129399,-2.131802,2.0,,0,,,,0,,
101116-4234,,Ugarte,43.128942,-2.12855,2.0,,0,,,,0,,
101116-4238,,Urreta,43.125262,-2.120637,2.0,,0,,,,0,,
101116-4235,,Otzarain,43.124087,-2.092428,2.0,,0,,,,0,,
101116-1114,,Benta Haundi,43.126127,-2.087444,2.0,,0,,,,0,,
101116-1140,,Oria Kalea - Zezen Plaza,43.13331,-2.076935,2.0,,0,,,,0,,
101116-1251,,Nafarroa Hiribidea 1,43.134922,-2.073665,2.0,,0,,,,0,,
101116-937,,Ibaiondo Kalea 1,43.136876,-2.071385,2.0,,0,,,,0,,
101116-2446,,Unzaga Lateral,43.184476,-2.473751,8.0,,0,,,,0,,
101116-422,,Nafarroa-iÃ±urritza,43.285816,-2.162897,3.0,,0,,,,0,,
101116-414,,Nafarroa Kalea- Gurutze Gorria,43.286069,-2.169192,3.0,,0,,,,0,,
101116-423,,Bixkonde 15- Erdigunea,43.286805,-2.175197,3.0,,0,,,,0,,
101116-1046,,Meagas,43.281294,-2.209473,3.0,,0,,,,0,,
101116-1047,,Oikiako Bidegurutzea,43.275049,-2.228532,3.0,,0,,,,0,,
101116-4045,,Etxabe,43.265872,-2.235018,3.0,,0,,,,0,,
101116-4043,,Zubialde,43.260148,-2.236815,3.0,,0,,,,0,,
101116-1048,,Aizarnazabal Plaza,43.252433,-2.235852,3.0,,0,,,,0,,
101116-4040,,Sebastopol-iraeta,43.254263,-2.259347,4.0,,0,,,,0,,
101116-2277,,Santa Ageda,43.122554,-2.182988,4.0,,0,,,,0,,
101116-373,,Trintxera,43.132814,-2.215605,4.0,,0,,,,0,,
101116-4883,,Nuarbe,43.137934,-2.233701,4.0,,0,,,,0,,
101116-519,,Atzaran-ugasaundi,43.145894,-2.232286,4.0,,0,,,,0,,
101116-670,,Makibar,43.150695,-2.237994,4.0,,0,,,,0,,
101116-5063,,Urrestilla,43.157324,-2.244959,4.0,,0,,,,0,,
101116-374,,LarraÃ±aga,43.16424,-2.247826,4.0,,0,,,,0,,
101116-2278,,Loiola,43.175879,-2.282245,4.0,,0,,,,0,,
101119-4616,,Barrio De Antxisu 2,43.248011,-2.019564,1.0,,0,,,,0,,
101119-405,,Antxisu Bailara 37,43.248727,-2.020131,1.0,,0,,,,0,,
101119-20,,Oria Hiribidea - Zelaialde,43.252106,-2.0194,1.0,,0,,,,0,,
101119-7484,,Oria Hiribidea 7 - Eliza,43.253573,-2.019302,1.0,,0,,,,0,,
101119-407,,"Zirkuitu Ibilbidea, 17 -basaundi",43.256851,-2.018239,1.0,,0,,,,0,,
101119-408,,Kale Nagusia - Oztaran,43.260995,-2.017458,1.0,,0,,,,0,,
101119-4556,,Nagusia 63,43.264184,-2.018627,1.0,,0,,,,0,,
101119-215,,Kale Nagusia 41 - Zumaburu,43.26628,-2.01948,1.0,,0,,,,0,,
101119-469,,Bekokale Lasarte,43.267825,-2.019061,1.0,,0,,,,0,,
101119-231,,Kalbario Bidea (lasarte-oria),43.268498,-2.017732,1.0,,0,,,,0,,
101119-7489,,Buenos Aires Aldapa NÂº 11,43.268597,-2.014539,1.0,,0,,,,0,,
101119-4559,,Buenos Aires,43.269311,-2.013837,1.0,,0,,,,0,,
101119-232,,Barrio Zabaleta (lasarte-oria),43.269977,-2.012717,1.0,,0,,,,0,,
101119-7487,,Osina Kalea,43.27069,-2.009773,1.0,,0,,,,0,,
101119-7488,,Pepenea Kalea,43.270026,-2.011164,1.0,,0,,,,0,,
101119-7486,,Pinutegi Kale Frente NÂº3-5,43.272144,-2.011376,1.0,,0,,,,0,,
101119-7485,,Pinutegi Kalea NÂº6-8,43.272767,-2.011576,1.0,,0,,,,0,,
101119-233,,Goiegi,43.272574,-2.015288,1.0,,0,,,,0,,
101119-361,,Donostia Etorbidea -sasoeta Atsobakar,43.27249,-2.018124,1.0,,0,,,,0,,
101119-383,,Kale Nagusia 4,43.269707,-2.020128,1.0,,0,,,,0,,
101119-212,,Kale Nagusia 40 - Zumaburu,43.266091,-2.019533,1.0,,0,,,,0,,
101119-4564,,Dia,43.264321,-2.018859,1.0,,0,,,,0,,
101119-384,,Kale Nagusia 70,43.261674,-2.017854,1.0,,0,,,,0,,
101119-7490,,Arranbide,43.259316,-2.016955,1.0,,0,,,,0,,
101119-4565,,Txartel,43.258956,-2.016974,1.0,,0,,,,0,,
101119-2607,,Basaundi,43.257291,-2.018146,1.0,,0,,,,0,,
101119-2608,,Iturrigoxo,43.255044,-2.018589,1.0,,0,,,,0,,
101119-2609,,Oria Gaina,43.253542,-2.018822,1.0,,0,,,,0,,
101119-386,,Oria Hiribidea,43.25352,-2.019451,1.0,,0,,,,0,,
101119-4567,,Txitxardin,43.250841,-2.01995,1.0,,0,,,,0,,
101119-385,,Zirkuitu Ibilbidea 12 - Basaundi,43.256834,-2.018437,1.0,,0,,,,0,,
101119-4560,,Instituto,43.268712,-2.016422,1.0,,0,,,,0,,
101111-4091,,Suhiltzaileak - Bomberos,43.330507,-1.824397,9.0,,0,,,,0,,
101111-4097,,Gabiria,43.328393,-1.823809,9.0,,0,,,,0,,
101111-145,,Elatzeta,43.328323,-1.819567,9.0,,0,,,,0,,
101111-4088,,Andrearriaga 23,43.329875,-1.817317,9.0,,0,,,,0,,
101111-45,,Ugalde,43.330985,-1.814089,9.0,,0,,,,0,,
101111-7075,,Elizatxo 38,43.332724,-1.805494,9.0,,0,,,,0,,
101111-4053,,Alai-Txoko,43.335302,-1.798869,9.0,,0,,,,0,,
101111-9008,,Gipuzkoa 15 (Ambulatorio),43.337516,-1.795346,9.0,,0,,,,0,,
101111-1477,,Luis Mariano Plaza - Paseo ColÃ³n,43.34015,-1.793283,9.0,,0,,,,0,,
101111-4056,,FermÃ­n CalbetÃ³n,43.339348,-1.788907,9.0,,0,,,,0,,
101111-100,,Zabaltza - Ensanche,43.340107,-1.792593,9.0,,0,,,,0,,
101111-1287,,ColÃ³n 52 - Topo,43.340803,-1.796244,9.0,,0,,,,0,,
101111-2068,,UrruÃ±a Plazatxoa,43.342357,-1.796743,9.0,,0,,,,0,,
101111-2096,,Lope De Irigoyen 31,43.344173,-1.796522,9.0,,0,,,,0,,
101111-4177,,"Aranzaran Plaza, 1",43.342838,-1.798819,9.0,,0,,,,0,,
101111-106,,Zubiaurre Kalea 5,43.341759,-1.799025,9.0,,0,,,,0,,
101111-1483,,Colon Pas. 43,43.340796,-1.796466,9.0,,0,,,,0,,
101111-90,,Gipuzkoa Hirib. 6,43.339759,-1.794636,9.0,,0,,,,0,,
101111-2104,,Gipuzkoa Hirib. 32,43.337544,-1.795506,9.0,,0,,,,0,,
101111-4098,,Euskal Herria 9,43.333586,-1.792402,9.0,,0,,,,0,,
101111-345,,Larreaundi,43.333447,-1.789493,9.0,,0,,,,0,,
101111-2610,,Epa Olaberria 8,43.331363,-1.789091,9.0,,0,,,,0,,
101111-4083,,Olaberria,43.32686,-1.788181,9.0,,0,,,,0,,
101111-7153,,San Jose Langilea,43.333542,-1.78827,9.0,,0,,,,0,,
101111-7154,,Urdanibia Plaza,43.33764,-1.785796,9.0,,0,,,,0,,
101111-4062,,Plaza Euskadi (Irun),43.34296,-1.759609,9.0,,0,,,,0,,
101111-4063,,Behobia,43.342404,-1.764851,9.0,,0,,,,0,,
101111-4064,,J.T. Labandibar,43.341674,-1.771503,9.0,,0,,,,0,,
101111-4065,,Azken Portu,43.341029,-1.776796,9.0,,0,,,,0,,
101111-4066,,Dunboa Anbulategia,43.339711,-1.78077,9.0,,0,,,,0,,
101111-4067,,"Avda. Nafarroa, 21 (Irun)",43.339466,-1.783946,9.0,,0,,,,0,,
101111-4178,,Hondarribia Kalea,43.34249,-1.799097,9.0,,0,,,,0,,
101111-4068,,Gibeleta,43.344226,-1.804997,9.0,,0,,,,0,,
101111-4069,,Hirubide,43.341915,-1.808719,9.0,,0,,,,0,,
101111-4070,,Puiana,43.339826,-1.811338,9.0,,0,,,,0,,
101111-4071,,Bidasoa Ospitalea,43.341673,-1.814942,9.0,,0,,,,0,,
101111-2809,,Txingudi Ikastola,43.342946,-1.816928,9.0,,0,,,,0,,
101111-7071,,Urdanibia Berri,43.33696,-1.817118,9.0,,0,,,,0,,
101111-7072,,Aristegi Enbajadorea,43.339687,-1.811797,9.0,,0,,,,0,,
101111-4072,,Aldabe Mendia 13,43.33963,-1.8107,9.0,,0,,,,0,,
101111-4073,,Anaka 40,43.340782,-1.808026,9.0,,0,,,,0,,
101111-98,,Anaka 1,43.340951,-1.801829,9.0,,0,,,,0,,
101111-4074,,Geltoki - EstaciÃ³n,43.340807,-1.799192,9.0,,0,,,,0,,
101111-4075,,San Juan,43.339294,-1.788908,9.0,,0,,,,0,,
101111-4076,,"Avda. Nafarroa, 4 (Irun)",43.339369,-1.784145,9.0,,0,,,,0,,
101111-4077,,"Avda. Nafarroa, 18 (Irun)",43.339564,-1.781316,9.0,,0,,,,0,,
101111-4078,,"Iglesia - DarÃ­o De Regoyos, 4 (Irun)",43.340519,-1.777127,9.0,,0,,,,0,,
101111-4797,,Dario Regoyos 10,43.341303,-1.775483,9.0,,0,,,,0,,
101111-4079,,DarÃ­o De Regoyos Cruce Con JosÃ© Maria Franco (Irun),43.341431,-1.771483,9.0,,0,,,,0,,
101111-4080,,"DarÃ­o De Regoyos, 58",43.341744,-1.766234,9.0,,0,,,,0,,
101111-4081,,Lastaola,43.341831,-1.761828,9.0,,0,,,,0,,
101111-5012,,Txingudi Merkataritza Gunea,43.320399,-1.836222,9.0,,0,,,,0,,
101111-15,,Arbes,43.336864,-1.781407,9.0,,0,,,,0,,
101111-4796,,Alzukaitz,43.336314,-1.777989,9.0,,0,,,,0,,
101111-315,,Blaia 22,43.336709,-1.77501,9.0,,0,,,,0,,
101111-12,,Hilerria,43.337929,-1.770727,9.0,,0,,,,0,,
101111-13,,Harrobieta,43.340167,-1.768671,9.0,,0,,,,0,,
101111-320,,JosÃ© MarÃ­a Franco,43.340722,-1.770856,9.0,,0,,,,0,,
101111-14,,Portu Plazatxoa,43.341201,-1.772672,9.0,,0,,,,0,,
101111-4306,,CÃ©sar Figuerido,43.338576,-1.776463,9.0,,0,,,,0,,
101111-7073,,Juan Wollmer 5,43.337852,-1.7795,9.0,,0,,,,0,,
101111-4086,,Aduana,43.338032,-1.79821,9.0,,0,,,,0,,
101111-89,,La Salle,43.335295,-1.799066,9.0,,0,,,,0,,
101111-121,,Olagizon - Ferrones,43.334199,-1.802739,9.0,,0,,,,0,,
101111-122,,Arturo CampiÃ³n,43.335672,-1.804141,9.0,,0,,,,0,,
101111-5975,,Gobaragin Kalea (Lavanderas),43.333783,-1.807731,9.0,,0,,,,0,,
101111-5973,,Elizatxo 54,43.331483,-1.810008,9.0,,0,,,,0,,
101111-110,,Bizkaia 10,43.329668,-1.81557,9.0,,0,,,,0,,
101111-5976,,Andrearriaga 14,43.328503,-1.819539,9.0,,0,,,,0,,
101111-4090,,Aranibar,43.328559,-1.824139,9.0,,0,,,,0,,
101111-2064,,San Martzial Txingudi Udal Kirol Gunea,43.334777,-1.769878,9.0,,0,,,,0,,
101111-5978,,Elizatxo Hiribidea 36 - Oinaurre,43.332724,-1.805506,9.0,,0,,,,0,,
101111-85,,Arakistain,43.33019,-1.823392,9.0,,0,,,,0,,
101111-5971,,Araso (PolÃ­gono),43.324759,-1.835534,9.0,,0,,,,0,,
101111-117,,Letxunborro 91,43.330808,-1.821283,9.0,,0,,,,0,,
101111-4302,,Elizatxo 11,43.336292,-1.79632,9.0,,0,,,,0,,
101113-4056,,Fermin CalbetÃ³n,43.339348,-1.788907,9.0,,0,,,,0,,
101113-100,,Colon-zabaltza,43.340107,-1.792593,9.0,,0,,,,0,,
101113-1287,,Colon 52-topo,43.340803,-1.796244,9.0,,0,,,,0,,
101113-4178,,Hondarribia Kalea,43.34249,-1.799097,9.0,,0,,,,0,,
101113-102,,Mendelu Kalea 17,43.347149,-1.801189,9.0,,0,,,,0,,
101113-1288,,N-638 - Amute,43.351196,-1.79821,9.0,,0,,,,0,,
101113-57,,Aeropuerto San Sebastian,43.356739,-1.794435,9.0,,0,,,,0,,
101113-52,,Sabin Arana Kalea 3,43.361735,-1.789968,9.0,,0,,,,0,,
101113-7195,,Matxin Arzu-itsas Etxea,43.367305,-1.793054,9.0,,0,,,,0,,
101113-104,,Itsasargi K. 20 - La Muela,43.371253,-1.793469,9.0,,0,,,,0,,
101113-4047,,Foru Kalea-arroka,43.37479,-1.796707,9.0,,0,,,,0,,
101113-1294,,RamÃ³n Iribarren 15- Iterlimen,43.380325,-1.79819,9.0,,0,,,,0,,
101113-1292,,Ramon Iribarren Pas. - Lurgorri,43.38368,-1.796099,9.0,,0,,,,0,,
101113-654,,Gipuzkoa Plaza 11,43.321047,-1.981638,1.0,,0,,,,0,,
101113-24,,Mirakruz K. 26,43.322218,-1.973602,1.0,,0,,,,0,,
101113-108,,Jai Alai,43.322064,-1.966439,1.0,,0,,,,0,,
101113-4050,,Jose Elosegi 2 - Ategorrieta,43.32171,-1.959206,1.0,,0,,,,0,,
101113-27,,Mirakruz Gaina,43.321276,-1.9482,1.0,,0,,,,0,,
101113-651,,Jose Elosegi 111,43.320511,-1.94333,1.0,,0,,,,0,,
101113-28,,Jose Elosegi 134 - Herrera,43.31995,-1.938234,1.0,,0,,,,0,,
101113-111,,Oleta / Escalerillas,43.321252,-1.931021,1.0,,0,,,,0,,
101113-4014,,Buenavista,43.320778,-1.921767,1.0,,0,,,,0,,
101113-30,,Nafarroa Hiribidea 5,43.319354,-1.91882,1.0,,0,,,,0,,
101113-208,,Nafarroa Hiribidea 24,43.318134,-1.915438,1.0,,0,,,,0,,
101113-179,,Sorgintxulo 11,43.316332,-1.909637,1.0,,0,,,,0,,
101113-180,,Kristobal Gamon Ikastetxea,43.31762,-1.907814,1.0,,0,,,,0,,
101113-181,,Alaberga.telefonica,43.315204,-1.907573,1.0,,0,,,,0,,
101113-182,,Beraungo Anbulategia,43.314143,-1.91049,1.0,,0,,,,0,,
101113-1715,,Galtzaraborda Etorb. 61,43.311687,-1.912655,1.0,,0,,,,0,,
101113-1716,,Galtzaraborda Etorb. - Koldo Mitxelena,43.310953,-1.908328,1.0,,0,,,,0,,
101113-126,,Iparralde Etorbidea-eliza,43.300109,-1.860132,1.0,,0,,,,0,,
101113-130,,Arraskularre,43.296694,-1.858075,1.0,,0,,,,0,,
101113-131,,Altzibar,43.293454,-1.857286,1.0,,0,,,,0,,
101113-132,,PeÃ±ene,43.292623,-1.859742,1.0,,0,,,,0,,
101113-133,,Iturriotz,43.293178,-1.865747,1.0,,0,,,,0,,
101113-134,,Ibarre,43.296268,-1.872297,1.0,,0,,,,0,,
101113-135,,Ugaldetxo,43.299052,-1.877017,1.0,,0,,,,0,,
101113-4105,,Astigarragako Bidea 3,43.299528,-1.880584,1.0,,0,,,,0,,
101113-136,,Mamut Merk.gunea,43.301177,-1.881675,1.0,,0,,,,0,,
101113-137,,Arragua,43.308942,-1.88194,1.0,,0,,,,0,,
101113-4166,,Nafarroa Hiribidea 2,43.310807,-1.884828,1.0,,0,,,,0,,
101113-80,,Nafarroa Hiribidea,43.310738,-1.890748,1.0,,0,,,,0,,
101113-79,,Gamon Zumardia,43.312797,-1.896962,1.0,,0,,,,0,,
101113-138,,Diputazio Pl.,43.314959,-1.90267,1.0,,0,,,,0,,
101113-139,,"Kaputxinoak, Biribilgunea",43.317663,-1.912339,1.0,,0,,,,0,,
101113-78,,Renfe,43.318983,-1.917594,1.0,,0,,,,0,,
101113-648,,Buenavista,43.320913,-1.921789,1.0,,0,,,,0,,
101113-140,,Oleta / Escalerillas,43.321374,-1.931537,1.0,,0,,,,0,,
101113-649,,Herrera,43.319921,-1.938962,1.0,,0,,,,0,,
101113-650,,Gaiztarro,43.320719,-1.943449,1.0,,0,,,,0,,
101113-174,,Mirakruz Gaina,43.321402,-1.950097,1.0,,0,,,,0,,
101113-177,,Ategorrieta 65,43.321962,-1.962125,1.0,,0,,,,0,,
101113-95,,Nafarroa Hirib. 31,43.323288,-1.967356,1.0,,0,,,,0,,
101113-142,,Nafarroa Hirib. 7 - Okendo Kultur Etxea,43.325493,-1.970279,1.0,,0,,,,0,,
101113-96,,Zurriola - Kursaal,43.324714,-1.976804,1.0,,0,,,,0,,
101113-653,,Gipuzkoa Plaza 10,43.321292,-1.981795,1.0,,0,,,,0,,
101113-5012,,Txingudi Merk. Gunea,43.320399,-1.836222,9.0,,0,,,,0,,
101113-5970,,Araso Biribilgunea,43.323191,-1.833714,9.0,,0,,,,0,,
101113-5976,,Andrearriaga 14,43.328503,-1.819539,9.0,,0,,,,0,,
101113-45,,Elizatxo Hiribidea 60,43.330985,-1.814089,9.0,,0,,,,0,,
101113-5977,,Elizatxo Hiribidea-piketazaharra,43.331968,-1.807224,9.0,,0,,,,0,,
101113-5974,,Gobaragin Kalea-lavanderas,43.333754,-1.807583,9.0,,0,,,,0,,
101113-5980,,Monte Aldabe 49,43.338297,-1.810665,9.0,,0,,,,0,,
101113-214,,Puiana,43.340486,-1.812473,9.0,,0,,,,0,,
101113-4071,,Bidasoa Ospitalea,43.341673,-1.814942,9.0,,0,,,,0,,
101113-7072,,Aristegi Enbajadorea,43.339687,-1.811797,9.0,,0,,,,0,,
101113-4728,,Letxunborro Hirib. - Gibanaka,43.343674,-1.805576,9.0,,0,,,,0,,
101113-50,,Kaputxinoak,43.352839,-1.797671,9.0,,0,,,,0,,
101113-1290,,Kosta Kalea 3dir. Hondarribia,43.358117,-1.796987,9.0,,0,,,,0,,
101113-5864,,Minasoroeta Kalea 17,43.361142,-1.793521,9.0,,0,,,,0,,
101113-5275,,Sabin Arana Goiri 8 Parean,43.364639,-1.791255,9.0,,0,,,,0,,
101113-1296,,Ramon Iribarren Pas 15 - Iterlimen,43.380723,-1.798343,9.0,,0,,,,0,,
101113-4054,,Foru Kalea- Arroka,43.374665,-1.796845,9.0,,0,,,,0,,
101113-1297,,Foru Kalea 3,43.372089,-1.794193,9.0,,0,,,,0,,
101113-54,,Itsasargi 3,43.369383,-1.793741,9.0,,0,,,,0,,
101113-55,,Bernat Etxepare Kalea - Correos,43.365987,-1.792759,9.0,,0,,,,0,,
101113-56,,Sabin Arana Kalea,43.361889,-1.790051,9.0,,0,,,,0,,
101113-4058,,Minasoroeta-zumardia,43.361352,-1.79211,9.0,,0,,,,0,,
101113-4730,,Santa Engrazia 8,43.360432,-1.79535,9.0,,0,,,,0,,
101113-4137,,Kosta Kalea 17,43.355778,-1.798033,9.0,,0,,,,0,,
101113-4060,,Kosta Kalea 49,43.352968,-1.798002,9.0,,0,,,,0,,
101113-105,,Mendelu Kalea 2,43.347241,-1.801372,9.0,,0,,,,0,,
101113-91,,Hondarribia K. 25 - Gurutze Gorria,43.34328,-1.79976,9.0,,0,,,,0,,
101113-106,,Zubiaurre Kalea 5,43.341759,-1.799025,9.0,,0,,,,0,,
101113-1483,,Colon Pas. 43,43.340796,-1.796466,9.0,,0,,,,0,,
101113-90,,Gipuzkoa Hirib. 6,43.339759,-1.794636,9.0,,0,,,,0,,
101113-6156,,Euskal Herria Etorbidea Dir. Larreaundi,43.334122,-1.793711,9.0,,0,,,,0,,
101113-345,,Larreaundi,43.333447,-1.789493,9.0,,0,,,,0,,
101113-7074,,Urdanibia Plaza,43.337066,-1.786041,9.0,,0,,,,0,,
101113-31,,Kaputxinoak,43.317446,-1.911258,1.0,,0,,,,0,,
101113-216,,Nafarroa Hirib. 75,43.314823,-1.902561,1.0,,0,,,,0,,
101113-34,,Gamon Zumardia,43.312579,-1.896695,1.0,,0,,,,0,,
101113-37,,Nafarroa Hiribidea,43.310508,-1.889322,1.0,,0,,,,0,,
101113-112,,Lartzabal,43.310431,-1.884157,1.0,,0,,,,0,,
101113-38,,Lintzirin Pol,43.314469,-1.875389,1.0,,0,,,,0,,
101113-83,,Lanbarren Pol.,43.319599,-1.867796,1.0,,0,,,,0,,
101113-42,,Gaintxurizketa Gaina,43.330079,-1.848767,9.0,,0,,,,0,,
101113-43,,Letxumborro 59,43.330034,-1.823136,9.0,,0,,,,0,,
101113-4072,,Aldabe Mendia K.13,43.33963,-1.8107,9.0,,0,,,,0,,
101113-4068,,Zubieta 16 - Gibeleta,43.344226,-1.804997,9.0,,0,,,,0,,
101113-4725,,Madalengain,43.36808,-1.795717,9.0,,0,,,,0,,
101113-4729,,Sokoa,43.371837,-1.796765,9.0,,0,,,,0,,
101113-58,,N-638 - Amute,43.351325,-1.798454,9.0,,0,,,,0,,
101113-89,,Elizatxo Hirib. 14 - La Salle,43.335295,-1.799066,9.0,,0,,,,0,,
101113-5978,,Elizatxo Hiribidea 36 - Oinaurre,43.332724,-1.805506,9.0,,0,,,,0,,
101113-5973,,Elizatxo Hiribidea 54,43.331483,-1.810008,9.0,,0,,,,0,,
101113-86,,Elizatxo Hiribidea 62- Bentak,43.330874,-1.815485,9.0,,0,,,,0,,
101113-85,,Letxunborro 59 - Suhiltzaileak,43.33019,-1.823392,9.0,,0,,,,0,,
101113-84,,Gaintxurizketa Gaina,43.329979,-1.850495,1.0,,0,,,,0,,
101113-39,,Lanbarren Pol.,43.320645,-1.867086,1.0,,0,,,,0,,
101113-82,,Gi-636 - Lintzirin,43.313488,-1.877232,1.0,,0,,,,0,,
101113-349,,Miramon Pasealekua -poliklinika Ii,43.290263,-1.97981,1.0,,0,,,,0,,
101113-1781,,Begiristain Doktorea 121 - Onkologikoa,43.291657,-1.973537,1.0,,0,,,,0,,
101113-350,,Begiristain Doktorea 115 - Ospitalea,43.292791,-1.970473,1.0,,0,,,,0,,
101113-714,,Zorroaga 39 - Illunbe,43.300917,-1.967994,1.0,,0,,,,0,,
101113-258,,Toribio Altzaga Kalea - Arcco,43.305011,-1.973608,1.0,,0,,,,0,,
101113-736,,Barcelona Hiribidea 28,43.311126,-1.971779,1.0,,0,,,,0,,
101113-7250,,Molinao,43.315594,-1.916322,1.0,,0,,,,0,,
101113-824,,Kiroldegia,43.318941,-1.899996,1.0,,0,,,,0,,
101113-147,,Jaizkibel Etorb. - Ijurko,43.321446,-1.897435,1.0,,0,,,,0,,
101113-4104,,San Roque,43.324251,-1.914824,1.0,,0,,,,0,,
101113-817,,Juan Xxiii - Frontoia,43.323602,-1.914798,1.0,,0,,,,0,,
101113-202,,Tolosa Hiribidea - Amerika Plaza,43.302351,-2.003736,1.0,,0,,,,0,,
101113-377,,Tolosa Hiribidea - Lorea,43.305021,-2.006343,1.0,,0,,,,0,,
101113-203,,Tolosa Hiribidea 77 - Unibertsitateak,43.307182,-2.008416,1.0,,0,,,,0,,
101113-4038,,Tolosa Hiribidea 13 - Magisteritza,43.312275,-2.00699,1.0,,0,,,,0,,
101113-380,,Zumalakarregi Hiribidea 11 - Esklabak,43.314806,-2.001929,1.0,,0,,,,0,,
101113-51,,Aeropuerto San Sebastian,43.35696,-1.793197,9.0,,0,,,,0,,
101113-5674,,"Jaitzubia - Bidasoa Ospitalea, Donostirantz",43.34431,-1.816531,9.0,,0,,,,0,,
101113-1727,,Okendo Kalea 16,43.321826,-1.98107,1.0,,0,,,,0,,
101113-4051,,Alto De Miracruz,43.321238,-1.94989,1.0,,0,,,,0,,
101113-159,,Jose Elosegi 102 - Contadores,43.321174,-1.944934,1.0,,0,,,,0,,
101113-160,,Bidebieta,43.32191,-1.939827,1.0,,0,,,,0,,
101113-162,,Euskadi Etorbidea 3,43.322343,-1.936996,1.0,,0,,,,0,,
101113-163,,Euskadi Etorbidea-azoka,43.322824,-1.933485,1.0,,0,,,,0,,
101113-164,,Gudarien Plaza,43.323062,-1.930113,1.0,,0,,,,0,,
101113-1708,,Esnabide Kalea 6,43.32488,-1.92611,1.0,,0,,,,0,,
101113-4302,,Elizatxo 11,43.336292,-1.79632,9.0,,0,,,,0,,
101113-47,,Luis Mariano,43.339436,-1.794679,9.0,,0,,,,0,,
101113-53,,Sabin Arana - Ama Guadalupekoa Ikastetxea,43.365568,-1.792335,9.0,,0,,,,0,,
101113-1717,,Plaza Urbia 1,43.311521,-1.905666,1.0,,0,,,,0,,
101113-1718,,Morrongilleta 22,43.311771,-1.902616,1.0,,0,,,,0,,
101113-185,,Pontika,43.309326,-1.903918,1.0,,0,,,,0,,
101113-16,,Beraun Kalea 15,43.309335,-1.908628,1.0,,0,,,,0,,
101113-833,,Avda. Galtzaraborda 53,43.311318,-1.911712,1.0,,0,,,,0,,
101113-189,,Galtzaraborda Anbulategia,43.313521,-1.911439,1.0,,0,,,,0,,
101113-191,,Alaberga - TelefÃ³nica,43.31491,-1.907887,1.0,,0,,,,0,,
101113-192,,Versalles Dorrea,43.317732,-1.908182,1.0,,0,,,,0,,
101113-193,,Sorgintxulo 11,43.316376,-1.90955,1.0,,0,,,,0,,
101113-818,,Lezo Bidea - Meipi,43.322705,-1.912286,1.0,,0,,,,0,,
101113-151,,Lezo Erdia,43.321541,-1.897902,1.0,,0,,,,0,,
101113-819,,Kiroldegia,43.318994,-1.899896,1.0,,0,,,,0,,
101113-2126,,"Jaitzubia - Bidasoa Ospitalea, Hondarribirantz",43.344094,-1.81656,9.0,,0,,,,0,,
101113-169,,Gudarien Plaza,43.323174,-1.930518,1.0,,0,,,,0,,
101113-170,,Euskadi Etorbidea 25,43.32293,-1.933335,1.0,,0,,,,0,,
101113-171,,Euskadi Etorbidea 1,43.322439,-1.936636,1.0,,0,,,,0,,
101113-172,,Bidebieta,43.322055,-1.939948,1.0,,0,,,,0,,
101113-173,,Jose Elosegi 283- Contadores,43.321383,-1.945103,1.0,,0,,,,0,,
101113-846,,Colon Pasealekua 13 - Gros,43.323024,-1.977091,1.0,,0,,,,0,,
101113-4106,,Aristegi,43.299593,-1.880743,1.0,,0,,,,0,,
101113-116,,Ugaldetxo,43.298502,-1.876066,1.0,,0,,,,0,,
101113-4107,,Rafael Pikabea 37,43.298889,-1.871472,1.0,,0,,,,0,,
101113-4108,,Rotonda Karaez Kalea 20,43.299214,-1.867854,1.0,,0,,,,0,,
101113-4109,,Rafael Pikabea 25,43.299227,-1.86381,1.0,,0,,,,0,,
101113-298,,Zumalakarregi Hiribidea 4,43.315101,-2.001653,1.0,,0,,,,0,,
101113-355,,Tolosa Hiribidea - Zubimusu Parkea,43.312862,-2.006104,1.0,,0,,,,0,,
101113-346,,Tolosa Hiribidea - Magisteritza,43.311295,-2.00925,1.0,,0,,,,0,,
101113-421,,Tolosa Hiribidea 70- Unibertsitatea,43.307049,-2.008727,1.0,,0,,,,0,,
101113-356,,Tolosa Hiribidea 112,43.304908,-2.006814,1.0,,0,,,,0,,
101113-205,,Tolosa Hiribidea 138,43.302238,-2.004219,1.0,,0,,,,0,,
101113-113,,Arragua,43.308791,-1.882152,1.0,,0,,,,0,,
101113-114,,Talaia,43.304276,-1.883603,1.0,,0,,,,0,,
101113-115,,Mamut Merk.gunea,43.302102,-1.882275,1.0,,0,,,,0,,
101113-7000,,R.arrillaga 6,43.324194,-1.929822,1.0,,0,,,,0,,
101113-7001,,Gran Sol 3,43.324932,-1.930685,1.0,,0,,,,0,,
101113-7002,,Borda-enea 2,43.325819,-1.932149,1.0,,0,,,,0,,
101113-7003,,Oiartzun 8,43.324718,-1.933895,1.0,,0,,,,0,,
101113-7004,,Ulia 22,43.325572,-1.937618,1.0,,0,,,,0,,
101113-7005,,Azkuene 35,43.325733,-1.938429,1.0,,0,,,,0,,
101113-7006,,Azkuene Pza.,43.324484,-1.93776,1.0,,0,,,,0,,
101113-630,,Kasares Pas. - Darieta,43.320196,-1.925983,1.0,,0,,,,0,,
101113-631,,Kasares Pas. - Oleta,43.31977,-1.92953,1.0,,0,,,,0,,
101113-632,,Altza Pas. - Sta. Barbara,43.317535,-1.930272,1.0,,0,,,,0,,
101113-633,,Larratxo Pas.- Nerecan,43.316634,-1.934086,1.0,,0,,,,0,,
101113-7013,,Txapinene Kalea 11- San Martzial,43.3141,-1.934661,1.0,,0,,,,0,,
101113-7011,,Lau Haizeta Kalea - Martillun,43.312906,-1.936001,1.0,,0,,,,0,,
101113-827,,LeosiÃ±eta Kalea - Bianka,43.313561,-1.937704,1.0,,0,,,,0,,
101113-4112,,Garbera Merk.gunea,43.308228,-1.948154,1.0,,0,,,,0,,
101113-1702,,Donostia Ibilbidea 38 - Hezegunea,43.283126,-1.949388,1.0,,0,,,,0,,
101113-4479,,Donostia Ibilbidea- Industrialgunea,43.280439,-1.950937,1.0,,0,,,,0,,
101113-4726,,Baserritar Etorb. 64 -talaia,43.371227,-1.799579,9.0,,0,,,,0,,
101113-5971,,Araso Dentro Del PolÃ­gono,43.324759,-1.835534,9.0,,0,,,,0,,
101113-4795,,Urbieta 50,43.314668,-1.98119,1.0,,0,,,,0,,
101113-217,,Mendeurrenaren Plaza - Centenario,43.31267,-1.980299,1.0,,0,,,,0,,
101113-198,,Antso Jakitunaren Hiribidea 26,43.308804,-1.979845,1.0,,0,,,,0,,
101113-218,,Aita Donostia Plaza - Anoeta,43.302992,-1.975381,1.0,,0,,,,0,,
101113-3940,,Begiristain Doktorea 218 - Onkologikoa,43.291553,-1.974081,1.0,,0,,,,0,,
101113-5979,,Monte Aldabe 4,43.338372,-1.810898,9.0,,0,,,,0,,
101113-5975,,Gobaragin Kalea 2,43.333783,-1.807731,9.0,,0,,,,0,,
101113-4070,,Letxunborro Puiana Biribilgunea,43.339826,-1.811338,9.0,,0,,,,0,,
101113-1701,,Donostia Ibilbidea - Lekueder,43.280463,-1.950555,1.0,,0,,,,0,,
101113-4478,,Donostia Ibilbidea - Pelotari Biribilgunea,43.283027,-1.949389,1.0,,0,,,,0,,
101113-7012,,Lau Haizeta Kalea - Martillun,43.313013,-1.935851,1.0,,0,,,,0,,
101113-7014,,Txapinene Kalea 17- San Martzial,43.314143,-1.934438,1.0,,0,,,,0,,
101113-641,,Larratxo Pas. - Nerecan,43.316524,-1.933804,1.0,,0,,,,0,,
101113-642,,Altza Pas. - Sta. Barbara,43.317569,-1.930012,1.0,,0,,,,0,,
101113-646,,Kasares Pas. - Oleta,43.319743,-1.929506,1.0,,0,,,,0,,
101113-647,,Kasares Pas. - Darieta,43.320366,-1.925844,1.0,,0,,,,0,,
101113-152,,Altamira,43.317619,-1.90203,1.0,,0,,,,0,,
101113-4300,,Caserio Mendin,43.303462,-1.874125,1.0,,0,,,,0,,
101113-7015,,Pikabene 2,43.300512,-1.865327,1.0,,0,,,,0,,
101113-1477,,Paseo Colon,43.34015,-1.793283,9.0,,0,,,,0,,
101112-1403,,"Triburcio Anitua, 25",43.181503,-2.486427,8.0,,0,,,,0,,
101112-1408,,Unibertsitatea,43.180165,-2.48816,8.0,,0,,,,0,,
101112-997,,Otaola,43.181475,-2.483141,8.0,,0,,,,0,,
101112-1410,,Polikiroldegia-eibar,43.182365,-2.478839,8.0,,0,,,,0,,
101112-1411,,Ipurua,43.181916,-2.474927,8.0,,0,,,,0,,
101112-1412,,Sostoatarren,43.182188,-2.473635,8.0,,0,,,,0,,
101112-1416,,Ubitxa,43.181384,-2.471794,8.0,,0,,,,0,,
101112-6018,,San Kristobal,43.180718,-2.472495,8.0,,0,,,,0,,
101112-6131,,Ubitxa 2,43.182091,-2.472147,8.0,,0,,,,0,,
101112-850,,Untzaga,43.184046,-2.473039,8.0,,0,,,,0,,
101112-1739,,Bidebarrie,43.185063,-2.468307,8.0,,0,,,,0,,
101112-6019,,Urtzaile,43.185286,-2.465979,8.0,,0,,,,0,,
101112-1419,,AgiÃ±azpi,43.186532,-2.462892,8.0,,0,,,,0,,
101112-1400,,Barrena,43.189175,-2.458168,8.0,,0,,,,0,,
101112-1000,,Azitain,43.189817,-2.454802,8.0,,0,,,,0,,
101112-1658,,Iparraguirre,43.188152,-2.458878,8.0,,0,,,,0,,
101112-6015,,Saratsuegi,43.186057,-2.457506,8.0,,0,,,,0,,
101112-1714,,Debegesa,43.194975,-2.452738,8.0,,0,,,,0,,
101112-2667,,Tekniker,43.196112,-2.451947,8.0,,0,,,,0,,
101112-993,,Azitain,43.189864,-2.455331,8.0,,0,,,,0,,
101112-1421,,Barrena,43.189335,-2.457748,8.0,,0,,,,0,,
101112-851,,Urkizu,43.186947,-2.462962,8.0,,0,,,,0,,
101112-4441,,Errebal,43.185746,-2.467981,8.0,,0,,,,0,,
101112-1401,,Correos-julian Etxebarria,43.186306,-2.470388,8.0,,0,,,,0,,
101112-1124,,"San Juan Kalea, 07",43.185244,-2.472391,8.0,,0,,,,0,,
101112-6078,,Torrekua,43.18455,-2.480285,8.0,,0,,,,0,,
101112-6021,,Wenceslao Orbea,43.186141,-2.481489,8.0,,0,,,,0,,
101112-6130,,Ziriako Agirre 2,43.184523,-2.482217,8.0,,0,,,,0,,
101112-1405,,Asola Igartza,43.183662,-2.482962,8.0,,0,,,,0,,
101112-1402,,"Tiburcio Anitua, 21",43.181932,-2.484773,8.0,,0,,,,0,,
101112-6016,,Izua,43.206871,-2.473903,8.0,,0,,,,0,,
101112-6020,,Usartza,43.208546,-2.468226,8.0,,0,,,,0,,
101112-4740,,Altzaga,43.210948,-2.461878,8.0,,0,,,,0,,
101112-1423,,Krabelin,43.210265,-2.454663,8.0,,0,,,,0,,
101112-1422,,Arrate,43.206038,-2.448085,8.0,,0,,,,0,,
101112-6132,,"Krabelin, 2",43.210209,-2.454374,8.0,,0,,,,0,,
101112-6133,,Usartza 2,43.209139,-2.467815,8.0,,0,,,,0,,
101112-6134,,Izua 2,43.207158,-2.473655,8.0,,0,,,,0,,
101110-4689,,Hilerria,43.07054,-2.492156,7.0,,0,,,,0,,
101110-4666,,Makatzenabarrena,43.069441,-2.485999,7.0,,0,,,,0,,
101110-2095,,Makatzenagoiena,43.069137,-2.484368,7.0,,0,,,,0,,
101110-4667,,Obenerreka 1,43.067599,-2.484811,7.0,,0,,,,0,,
101110-4668,,Santa Marina,43.066796,-2.482484,7.0,,0,,,,0,,
101110-4669,,Galizia,43.068244,-2.480114,7.0,,0,,,,0,,
101110-4670,,Joan Bengoa 1,43.069227,-2.478558,7.0,,0,,,,0,,
101110-4646,,Musakola 1,43.067799,-2.477391,7.0,,0,,,,0,,
101110-4649,,Legarre,43.065575,-2.483268,7.0,,0,,,,0,,
101110-4676,,San Frantzisko 2,43.066948,-2.49027,7.0,,0,,,,0,,
101110-4650,,Maala,43.065786,-2.486128,7.0,,0,,,,0,,
101110-4651,,Garibai 1,43.064758,-2.489796,7.0,,0,,,,0,,
101110-4653,,San AndrÃ©s,43.06146,-2.493336,7.0,,0,,,,0,,
101110-4691,,San Viator Txiki,43.061952,-2.494646,7.0,,0,,,,0,,
101110-4658,,Erguingain A,43.063474,-2.498932,7.0,,0,,,,0,,
101110-4659,,Gorostitza,43.065078,-2.499017,7.0,,0,,,,0,,
101110-4644,,Eroski,43.072141,-2.471888,7.0,,0,,,,0,,
101110-4645,,Kiroldegia,43.069616,-2.476884,7.0,,0,,,,0,,
101110-4647,,Ospitalea 1,43.063766,-2.483492,7.0,,0,,,,0,,
101110-4648,,Elma 1,43.064604,-2.483669,7.0,,0,,,,0,,
101110-4652,,Etxaluze,43.062489,-2.49205,7.0,,0,,,,0,,
101110-3061,,San Josepe,43.058803,-2.49127,7.0,,0,,,,0,,
101110-4654,,Arimazubi 1,43.062747,-2.495364,7.0,,0,,,,0,,
101110-4655,,Uribarri 1,43.06213,-2.500429,7.0,,0,,,,0,,
101110-4656,,Garaia 1,43.062631,-2.503839,7.0,,0,,,,0,,
101110-4657,,Itxaropena,43.062709,-2.501038,7.0,,0,,,,0,,
101110-4976,,Maitena,43.065989,-2.49955,7.0,,0,,,,0,,
101110-4660,,Erguingain B,43.063457,-2.498994,7.0,,0,,,,0,,
101110-4661,,Erguin 1,43.062897,-2.498777,7.0,,0,,,,0,,
101110-4662,,Zarugalde 1,43.063919,-2.495723,7.0,,0,,,,0,,
101110-4663,,Muzibar 1,43.064983,-2.493823,7.0,,0,,,,0,,
101110-4664,,San Frantzisko 1,43.067044,-2.489704,7.0,,0,,,,0,,
101110-4665,,J.l. IÃ±arra 1,43.068419,-2.487015,7.0,,0,,,,0,,
101110-3063,,Altamira,43.068156,-2.48644,7.0,,0,,,,0,,
101110-4680,,Udalpe,43.063211,-2.500494,7.0,,0,,,,0,,
101110-4681,,Garaia 2,43.062723,-2.504207,7.0,,0,,,,0,,
101110-4682,,Uribarri 2,43.062013,-2.500442,7.0,,0,,,,0,,
101110-4683,,Arimazubi 2,43.062612,-2.495402,7.0,,0,,,,0,,
101110-4684,,Garibai 2,43.064604,-2.489736,7.0,,0,,,,0,,
101110-4685,,Elma 2,43.064666,-2.483423,7.0,,0,,,,0,,
101110-4686,,Ospitalea 2,43.063777,-2.483996,7.0,,0,,,,0,,
101110-4687,,Musakola 2,43.067065,-2.478208,7.0,,0,,,,0,,
101110-4688,,San Isidro,43.068442,-2.476194,7.0,,0,,,,0,,
101110-4671,,Joan Bengoa 2,43.069082,-2.478277,7.0,,0,,,,0,,
101110-2100,,Santa Teresa 19,43.069096,-2.479382,7.0,,0,,,,0,,
101110-4672,,Santa Teresa,43.068857,-2.480305,7.0,,0,,,,0,,
101110-4673,,Agarre,43.067345,-2.482332,7.0,,0,,,,0,,
101110-4674,,Obenerreka 2,43.067255,-2.484421,7.0,,0,,,,0,,
101110-4802,,Hondarribia,43.068448,-2.485357,7.0,,0,,,,0,,
101110-4675,,J. L. IÃ±arra 2,43.068798,-2.487233,7.0,,0,,,,0,,
101110-4677,,Muzibar 2,43.065126,-2.493674,7.0,,0,,,,0,,
101110-4678,,Zarugalde 2,43.064099,-2.495635,7.0,,0,,,,0,,
101110-4679,,Erguin 2,43.062852,-2.498777,7.0,,0,,,,0,,
101110-4449,,San Andres,43.060834,-2.492457,7.0,,0,,,,0,,
989-1,,Boulevard 9,43.322473,-1.983021,1.0,,0,,,,0,,
989-2,,Urbieta 12,43.31793,-1.983491,1.0,,0,,,,0,,
989-3,,Urbieta 58,43.314152,-1.980853,1.0,,0,,,,0,,
989-4,,Sancho Sabio 12,43.310076,-1.980157,1.0,,0,,,,0,,
989-5,,S.Sabio 28,43.30801,-1.979748,1.0,,0,,,,0,,
989-6,,Madrid 14,43.3045,-1.976884,1.0,,0,,,,0,,
989-7,,Madrid 28,43.302992,-1.975381,1.0,,0,,,,0,,
989-8,,Toribio Alzaga,43.305056,-1.973657,1.0,,0,,,,0,,
989-9,,La Salle,43.3099,-1.967583,1.0,,0,,,,0,,
989-600,,Urbieta 38,43.316173,-1.982262,1.0,,0,,,,0,,
989-601,,Hipica Cuarteles Loiola,43.306842,-1.965982,1.0,,0,,,,0,,
989-602,,Etxadi Parkea Ii,43.30102,-1.988593,1.0,,0,,,,0,,
989-603,,Elizasu,43.315016,-1.93441,1.0,,0,,,,0,,
989-604,,Txapinene,43.315036,-1.934595,1.0,,0,,,,0,,
989-605,,Atotxa Erreka 62,43.293401,-2.001774,1.0,,0,,,,0,,
989-606,,San Antonio,43.319719,-1.942418,1.0,,0,,,,0,,
989-607,,Luis Pradera 9,43.320875,-1.946727,1.0,,0,,,,0,,
989-608,,Morlans 73,43.305298,-1.988621,1.0,,0,,,,0,,
989-609,,Luis Pradera 1,43.321043,-1.948303,1.0,,0,,,,0,,
989-610,,Morlans Ascensor,43.307814,-1.987063,1.0,,0,,,,0,,
989-611,,Morlans 19,43.308356,-1.984205,1.0,,0,,,,0,,
989-613,,Garbera Ii,43.308156,-1.94813,1.0,,0,,,,0,,
989-500,,Ubarburu 31,43.301232,-1.946203,1.0,,0,,,,0,,
989-501,,Ubarburu 5,43.302339,-1.951991,1.0,,0,,,,0,,
989-503,,Errondo-Podavines,43.302094,-1.97976,1.0,,0,,,,0,,
989-505,,Isturin,43.309623,-1.995109,1.0,,0,,,,0,,
989-507,,Ategorrieta,43.322029,-1.967624,1.0,,0,,,,0,,
989-508,,Plaza San Luis,43.318925,-1.938325,1.0,,0,,,,0,,
989-509,,Mikeletegi 6,43.286935,-1.985301,1.0,,0,,,,0,,
989-510,,Mikeletegi 5,43.287105,-1.985188,1.0,,0,,,,0,,
989-511,,Merkezabal 13,43.302273,-1.986625,1.0,,0,,,,0,,
989-512,,Borroto 20,43.302157,-1.988796,1.0,,0,,,,0,,
989-513,,FrontÃ³n Ategorrieta,43.322464,-1.959908,1.0,,0,,,,0,,
989-514,,Bordatxipi-Lore Toki,43.323801,-1.960404,1.0,,0,,,,0,,
989-515,,Larraga Arbola,43.323642,-1.961726,1.0,,0,,,,0,,
989-516,,Rodil 91,43.324736,-1.963212,1.0,,0,,,,0,,
989-517,,Rodil 69,43.325352,-1.964632,1.0,,0,,,,0,,
989-518,,Rodil 55,43.325651,-1.965861,1.0,,0,,,,0,,
989-519,,Manteo,43.32556,-1.967737,1.0,,0,,,,0,,
989-401,,Matigotxotegi-Parking,43.318247,-1.963594,1.0,,0,,,,0,,
989-522,,F. G. Lorca 6,43.314285,-1.977559,1.0,,0,,,,0,,
989-402,,Barcelona 26,43.311099,-1.971743,1.0,,0,,,,0,,
989-523,,Tolaregoia 2,43.315778,-1.967335,1.0,,0,,,,0,,
989-524,,Garro Zubia,43.317884,-1.946544,1.0,,0,,,,0,,
989-525,,Gregorio OrdoÃ±ez,43.305832,-1.973841,1.0,,0,,,,0,,
989-404,,San Roque 12,43.312191,-1.984092,1.0,,0,,,,0,,
989-405,,Barcelona 10,43.30927,-1.971613,1.0,,0,,,,0,,
989-526,,Zorroagako Gaina 1,43.303202,-1.968756,1.0,,0,,,,0,,
989-527,,Mendigain,43.306043,-1.967204,1.0,,0,,,,0,,
989-528,,Zorroagako Gaina 2,43.302197,-1.968083,1.0,,0,,,,0,,
989-529,,Ospitaleak-LarraÃ±ategi,43.294269,-1.966627,1.0,,0,,,,0,,
989-410,,LeosiÃ±eta,43.312295,-1.937084,1.0,,0,,,,0,,
989-531,,Jai Alai 17,43.320089,-1.96815,1.0,,0,,,,0,,
989-411,,Altzako Anbulatorioa,43.3166,-1.932323,1.0,,0,,,,0,,
989-532,,Tolaregoia 42,43.316203,-1.965552,1.0,,0,,,,0,,
989-533,,Zubiaurre 40,43.320142,-1.95705,1.0,,0,,,,0,,
989-413,,Larratxo 98,43.316589,-1.932114,1.0,,0,,,,0,,
989-534,,Txurkoene 3,43.31738,-1.965323,1.0,,0,,,,0,,
989-535,,Virgen del Carmen 46,43.318287,-1.968045,1.0,,0,,,,0,,
989-536,,Errondo 3,43.310573,-1.98132,1.0,,0,,,,0,,
989-537,,LeosiÃ±eta Ii,43.312048,-1.936706,1.0,,0,,,,0,,
989-416,,Urgull-Cementerio Ingleses,43.325294,-1.990398,1.0,,0,,,,0,,
989-417,,Errondo Anoeta,43.302163,-1.975345,1.0,,0,,,,0,,
989-538,,Pasai San Pedro 49,43.322431,-1.937685,1.0,,0,,,,0,,
989-539,,Pasai San Pedro 25,43.322055,-1.939936,1.0,,0,,,,0,,
989-418,,Zorroaga-Anoeta,43.303332,-1.973106,1.0,,0,,,,0,,
989-540,,Larratxo 11,43.31645,-1.939503,1.0,,0,,,,0,,
989-541,,Larratxo 20,43.314381,-1.939675,1.0,,0,,,,0,,
989-420,,Errondo -J.M. Salaberria,43.302607,-1.980701,1.0,,0,,,,0,,
989-300,,Duque de Baena,43.313057,-1.996545,1.0,,0,,,,0,,
989-421,,Zubiaurre Puente,43.319898,-1.952022,1.0,,0,,,,0,,
989-542,,Eskalantegi 15,43.318035,-1.919263,1.0,,0,,,,0,,
989-301,,Sanserreka,43.311337,-1.993466,1.0,,0,,,,0,,
989-543,,Eskalantegi 58,43.315887,-1.918771,1.0,,0,,,,0,,
989-302,,Sanserreka-Polikiroldegia,43.30934,-1.993622,1.0,,0,,,,0,,
989-423,,Katalina Eleizegi 1,43.306322,-1.987396,1.0,,0,,,,0,,
989-544,,Molinao Plaza Ii,43.312783,-1.920922,1.0,,0,,,,0,,
989-424,,Oriamendi 112,43.287038,-1.98774,1.0,,0,,,,0,,
989-545,,Darieta 141,43.317575,-1.921072,1.0,,0,,,,0,,
989-303,,Rio Deba Ibaia 2,43.316738,-1.969033,1.0,,0,,,,0,,
989-425,,Mikeletegi 12,43.288076,-1.98193,1.0,,0,,,,0,,
989-304,,Melodi P. Baroja,43.307866,-1.990859,1.0,,0,,,,0,,
989-546,,Darieta 13,43.319408,-1.922568,1.0,,0,,,,0,,
989-426,,Poliklinika Ii,43.290245,-1.979761,1.0,,0,,,,0,,
989-305,,Gipuzkoa Pza 2,43.321516,-1.982666,1.0,,0,,,,0,,
989-547,,Darieta Polideportivo,43.318706,-1.92649,1.0,,0,,,,0,,
989-427,,Poliklinika I,43.290626,-1.9801,1.0,,0,,,,0,,
989-306,,Lazkano 3,43.310793,-1.988937,1.0,,0,,,,0,,
989-548,,Txingurri 29,43.316332,-1.941306,1.0,,0,,,,0,,
989-307,,Izaburu,43.309671,-1.991397,1.0,,0,,,,0,,
989-428,,Intxaurdegi,43.287219,-1.987848,1.0,,0,,,,0,,
989-549,,Txingurri 7,43.318109,-1.938759,1.0,,0,,,,0,,
989-429,,Katxola,43.291323,-1.990702,1.0,,0,,,,0,,
989-308,,Matia Zentroa,43.30393,-2.001047,1.0,,0,,,,0,,
989-309,,Lugaritz 27,43.302852,-1.999302,1.0,,0,,,,0,,
989-550,,Pasai San Pedro-Bidebieta,43.321901,-1.939815,1.0,,0,,,,0,,
989-430,,Oriamendi,43.29953,-1.99117,1.0,,0,,,,0,,
989-551,,Euskadi Etorbidea 5,43.322318,-1.93723,1.0,,0,,,,0,,
989-310,,Lugaritz Euskotren Ii,43.302163,-2.001816,1.0,,0,,,,0,,
989-431,,Gurutze Alde Ii,43.306765,-1.999805,1.0,,0,,,,0,,
989-552,,Azkuene 35,43.325805,-1.938465,1.0,,0,,,,0,,
989-432,,Aiete 93,43.301972,-1.990328,1.0,,0,,,,0,,
989-311,,Uniber T.70 Ii,43.307041,-2.008789,1.0,,0,,,,0,,
989-553,,Azkuene Plaza,43.324475,-1.937748,1.0,,0,,,,0,,
989-554,,Marrus,43.30683,-1.94295,1.0,,0,,,,0,,
989-433,,Lugaritz - Eusko Tren,43.302169,-2.001483,1.0,,0,,,,0,,
989-313,,Lugaritz-Geriatrico,43.302689,-1.999193,1.0,,0,,,,0,,
989-434,,Oriamendi Etxadi,43.3025,-1.990961,1.0,,0,,,,0,,
989-555,,Zorroagako Gaina 76,43.298557,-1.965913,1.0,,0,,,,0,,
989-435,,Oriamendi 20,43.29883,-1.991453,1.0,,0,,,,0,,
989-314,,Lazkano,43.309354,-1.990157,1.0,,0,,,,0,,
989-556,,Zorroagako Gaina 134,43.294695,-1.964955,1.0,,0,,,,0,,
989-315,,Melodi Pb.55,43.308297,-1.991728,1.0,,0,,,,0,,
989-436,,Oriamendi 68,43.29313,-1.991387,1.0,,0,,,,0,,
989-557,,Illarra,43.303527,-2.018968,1.0,,0,,,,0,,
989-316,,Sanserreka 33,43.309356,-1.993375,1.0,,0,,,,0,,
989-437,,Katalina Eleizegi 25,43.303403,-1.98721,1.0,,0,,,,0,,
989-558,,Askatasuna/Libertad 3,43.320417,-1.979626,1.0,,0,,,,0,,
989-317,,Sanserreka 25,43.311617,-1.993535,1.0,,0,,,,0,,
989-559,,Paseo Salamanca,43.324333,-1.981472,1.0,,0,,,,0,,
989-318,,Duque de Baena 1,43.313166,-1.996641,1.0,,0,,,,0,,
989-439,,Oriamendi 86,43.290223,-1.990486,1.0,,0,,,,0,,
989-319,,Mirakontxa 42,43.314203,-1.995811,1.0,,0,,,,0,,
989-560,,FotogrÃ¡fica,43.325872,-1.984506,1.0,,0,,,,0,,
989-440,,Oriamendi Pakea,43.294882,-1.991949,1.0,,0,,,,0,,
989-561,,Paseo Nuevo I,43.324861,-1.993316,1.0,,0,,,,0,,
989-320,,Mirakontxa 28,43.314313,-1.991924,1.0,,0,,,,0,,
989-441,,Alto Molinao,43.312551,-1.924009,1.0,,0,,,,0,,
989-562,,Urgull,43.324091,-1.990764,1.0,,0,,,,0,,
989-200,,Madrid 17,43.303588,-1.975605,1.0,,0,,,,0,,
989-321,,Askatasuna 20,43.319849,-1.981535,1.0,,0,,,,0,,
989-563,,Paseo Nuevo Ii,43.324868,-1.993094,1.0,,0,,,,0,,
989-201,,Madrid 3,43.305305,-1.977339,1.0,,0,,,,0,,
989-322,,Gantxegi,43.308998,-1.996685,1.0,,0,,,,0,,
989-443,,Ubarburu 32,43.301043,-1.946207,1.0,,0,,,,0,,
989-564,,San Telmo,43.325838,-1.984642,1.0,,0,,,,0,,
989-202,,Sanchosabio 33,43.308359,-1.979507,1.0,,0,,,,0,,
989-323,,Portuene 20 I,43.309919,-1.997015,1.0,,0,,,,0,,
989-444,,Ubarburu 44,43.299676,-1.944405,1.0,,0,,,,0,,
989-565,,Aldamar-Bretxa,43.323875,-1.982689,1.0,,0,,,,0,,
989-203,,P.Bizkaia-Puentemundaiz,43.310823,-1.979109,1.0,,0,,,,0,,
989-324,,Portuene 49,43.309333,-1.995977,1.0,,0,,,,0,,
989-445,,Ubarburu 54,43.296375,-1.942848,1.0,,0,,,,0,,
989-566,,Pinos 7,43.306059,-1.998398,1.0,,0,,,,0,,
989-204,,Gernikako Arbola,43.313905,-1.979353,1.0,,0,,,,0,,
989-325,,Dr. MaraÃ±Ã³n,43.308222,-1.994491,1.0,,0,,,,0,,
989-446,,Ubarburu 55,43.29738,-1.941523,1.0,,0,,,,0,,
989-567,,Gurutze Alde I,43.305137,-2.000029,1.0,,0,,,,0,,
989-205,,Maria Cristina pte./zubia,43.317773,-1.978906,1.0,,0,,,,0,,
989-326,,Muntomar,43.308198,-1.996859,1.0,,0,,,,0,,
989-447,,Ubarburu 37,43.299672,-1.944011,1.0,,0,,,,0,,
989-568,,Lazkano 57 Ii,43.308307,-1.989804,1.0,,0,,,,0,,
989-206,,Groseko Ambulatorioa,43.32544,-1.970415,1.0,,0,,,,0,,
989-327,,Pinu bidea,43.307207,-1.997825,1.0,,0,,,,0,,
989-569,,Aieteko Jauregia Ii,43.304538,-1.992345,1.0,,0,,,,0,,
989-448,,Ubarburu 13,43.302606,-1.948769,1.0,,0,,,,0,,
989-328,,Gurutze H.153,43.307838,-2.000034,1.0,,0,,,,0,,
989-207,,Askatasuna 18,43.319973,-1.981262,1.0,,0,,,,0,,
989-208,,Urbieta 6,43.318347,-1.983805,1.0,,0,,,,0,,
989-329,,Itxas Aurre,43.30878,-2.000696,1.0,,0,,,,0,,
989-209,,P.M.Collado,43.306943,-1.981196,1.0,,0,,,,0,,
989-570,,Puente Mundaiz,43.312262,-1.977864,1.0,,0,,,,0,,
989-571,,Arriola 87,43.312048,-2.016155,1.0,,0,,,,0,,
989-330,,Apaizgaitegia/Seminario H.82,43.31078,-2.002846,1.0,,0,,,,0,,
989-572,,Arriola 32 igerilekuak,43.31144,-2.015647,1.0,,0,,,,0,,
989-452,,Okendo 18,43.321446,-1.980892,1.0,,0,,,,0,,
989-331,,Avanco,43.308561,-2.004399,1.0,,0,,,,0,,
989-210,,Salaberria 27,43.305344,-1.980643,1.0,,0,,,,0,,
989-573,,Pakea,43.31111,-2.013901,1.0,,0,,,,0,,
989-332,,Apaizgaitegia/Seminario,43.310697,-2.002576,1.0,,0,,,,0,,
989-211,,Mutualidades,43.302855,-1.980216,1.0,,0,,,,0,,
989-574,,Arriola 15,43.310194,-2.012017,1.0,,0,,,,0,,
989-333,,Itxas Aurre H.112,43.308899,-2.00083,1.0,,0,,,,0,,
989-212,,Errondo Barkaiztegi,43.305523,-1.982514,1.0,,0,,,,0,,
989-334,,Gurutze H.128,43.307445,-1.999387,1.0,,0,,,,0,,
989-213,,Lizarra,43.314859,-1.985392,1.0,,0,,,,0,,
989-576,,Julianategi-Universidad,43.309921,-2.010739,1.0,,0,,,,0,,
989-335,,Begi Urdinak,43.307294,-1.997552,1.0,,0,,,,0,,
989-214,,Errondo,43.305964,-1.982507,1.0,,0,,,,0,,
989-577,,Tontorgoxo,43.310661,-2.011936,1.0,,0,,,,0,,
989-336,,Donosti Zahar,43.308926,-1.995737,1.0,,0,,,,0,,
989-215,,Alto Errondo 32,43.300724,-1.979611,1.0,,0,,,,0,,
989-578,,Arriola 26,43.311192,-2.014036,1.0,,0,,,,0,,
989-337,,Portuene 20 Ii,43.309918,-1.996917,1.0,,0,,,,0,,
989-216,,Azkaratene,43.301016,-1.987052,1.0,,0,,,,0,,
989-579,,Arriola 32,43.311568,-2.015818,1.0,,0,,,,0,,
989-458,,Arroka plaza,43.313803,-1.983054,1.0,,0,,,,0,,
989-338,,Portuene 21,43.309296,-1.996804,1.0,,0,,,,0,,
989-459,,San Roque 2,43.313346,-1.985392,1.0,,0,,,,0,,
989-217,,Alto Miracruz Ii,43.321276,-1.948188,1.0,,0,,,,0,,
989-339,,P.Baroja 4,43.313856,-1.999355,1.0,,0,,,,0,,
989-218,,Bera Bera 133,43.303219,-1.992798,1.0,,0,,,,0,,
989-219,,Bera Bera 89,43.304981,-1.994631,1.0,,0,,,,0,,
989-580,,Arriola 89,43.312012,-2.016094,1.0,,0,,,,0,,
989-460,,Aldapa 24,43.315566,-1.968819,1.0,,0,,,,0,,
989-581,,Montesol Eguzkimendi,43.31945,-1.944433,1.0,,0,,,,0,,
989-340,,P.Baroja 10,43.311324,-1.996018,1.0,,0,,,,0,,
989-582,,Ibaeta Diario Vasco,43.303815,-2.008471,1.0,,0,,,,0,,
989-461,,San Roque 18,43.312634,-1.985343,1.0,,0,,,,0,,
989-341,,Larramendi,43.315082,-1.98217,1.0,,0,,,,0,,
989-220,,Bera Bera 85,43.304448,-1.996452,1.0,,0,,,,0,,
989-462,,Beloka 1,43.31225,-1.986742,1.0,,0,,,,0,,
989-100,,Frantziskotarrak,43.317447,-1.974743,1.0,,0,,,,0,,
989-221,,Bera Bera 57,43.302158,-1.998203,1.0,,0,,,,0,,
989-463,,Beloka 15,43.313357,-1.988648,1.0,,0,,,,0,,
989-584,,Morlans 51,43.306464,-1.988158,1.0,,0,,,,0,,
989-101,,Duque de Mandas 3,43.320071,-1.974095,1.0,,0,,,,0,,
989-222,,Bera Bera 47,43.301508,-1.996969,1.0,,0,,,,0,,
989-585,,Tranbia 1,43.297311,-1.95458,1.0,,0,,,,0,,
989-464,,Beloka 23,43.311963,-1.988806,1.0,,0,,,,0,,
989-343,,Atotxa Erreka 26,43.291632,-2.001285,1.0,,0,,,,0,,
989-102,,Boulevard 3,43.322649,-1.982537,1.0,,0,,,,0,,
989-344,,Pio Baroja 15,43.311268,-1.995797,1.0,,0,,,,0,,
989-223,,Bera Bera 31,43.300551,-1.994593,1.0,,0,,,,0,,
989-586,,Campo futbol zelaia,43.297355,-1.954505,1.0,,0,,,,0,,
989-465,,Lazkano 2,43.310417,-1.989177,1.0,,0,,,,0,,
989-103,,Askatasuna 21,43.319493,-1.982034,1.0,,0,,,,0,,
989-345,,P. Baroja 5,43.314054,-1.99934,1.0,,0,,,,0,,
989-224,,Bera Bera 2,43.30154,-1.991383,1.0,,0,,,,0,,
989-587,,Txingurri 40,43.315669,-1.94165,1.0,,0,,,,0,,
989-466,,Txingurri,43.318137,-1.93882,1.0,,0,,,,0,,
989-225,,Askatasuna 31,43.319029,-1.983473,1.0,,0,,,,0,,
989-104,,Pinudi/Pinares M.16,43.321949,-1.974717,1.0,,0,,,,0,,
989-588,,Arzak Enea,43.283295,-2.00136,1.0,,0,,,,0,,
989-467,,Lazkano 57,43.308326,-1.989915,1.0,,0,,,,0,,
989-105,,Euskal Herria/Vasconia,43.322256,-1.971838,1.0,,0,,,,0,,
989-226,,Aiete 53,43.307358,-1.992495,1.0,,0,,,,0,,
989-347,,Pio Xii,43.307427,-1.979967,1.0,,0,,,,0,,
989-468,,Lazkano 41,43.309498,-1.990142,1.0,,0,,,,0,,
989-589,,Aldunaene,43.308617,-1.9761,1.0,,0,,,,0,,
989-106,,Jai Alai,43.321997,-1.96702,1.0,,0,,,,0,,
989-227,,Iza,43.309983,-1.99096,1.0,,0,,,,0,,
989-348,,Melodi Lugaritz,43.307265,-1.990105,1.0,,0,,,,0,,
989-469,,San Roque 65,43.311589,-1.988258,1.0,,0,,,,0,,
989-107,,Erlojua/Reloj,43.321647,-1.960218,1.0,,0,,,,0,,
989-228,,Aiete 1,43.310772,-1.98964,1.0,,0,,,,0,,
989-349,,Unibertsitatea Tol.95,43.307353,-2.008463,1.0,,0,,,,0,,
989-108,,Intxaurrondo Zaharra,43.321358,-1.953243,1.0,,0,,,,0,,
989-229,,Marianistak,43.314433,-1.987076,1.0,,0,,,,0,,
989-109,,Mirakruz Gaina /Alto Miracruz,43.321247,-1.94989,1.0,,0,,,,0,,
989-590,,Mikeletegi-Miramon,43.287982,-1.982474,1.0,,0,,,,0,,
989-591,,Cocheras Mons,43.318886,-1.960611,1.0,,0,,,,0,,
989-470,,San Roque 58,43.311796,-1.985221,1.0,,0,,,,0,,
989-350,,Zumalakarregi 9,43.314771,-2.002016,1.0,,0,,,,0,,
989-471,,San Roque 13,43.312086,-1.983428,1.0,,0,,,,0,,
989-592,,Atotxa Erreka 46,43.29237,-1.999141,1.0,,0,,,,0,,
989-351,,Zumalakarregi 8,43.314907,-2.002125,1.0,,0,,,,0,,
989-230,,Katalina Eleizegi 2,43.306458,-1.98743,1.0,,0,,,,0,,
989-472,,San Roque 7,43.312849,-1.984217,1.0,,0,,,,0,,
989-593,,Balleneros 8,43.305777,-1.974656,1.0,,0,,,,0,,
989-110,,Elosegi 111,43.320493,-1.943367,1.0,,0,,,,0,,
989-352,,Melodi Parkea,43.307407,-1.989893,1.0,,0,,,,0,,
989-231,,Katalina Eleizegi 34,43.304797,-1.987951,1.0,,0,,,,0,,
989-594,,Aldakonea Gaina,43.319579,-1.972537,1.0,,0,,,,0,,
989-473,,Plaza Easo,43.314019,-1.982076,1.0,,0,,,,0,,
989-111,,Herrera Euskotren,43.319787,-1.938138,1.0,,0,,,,0,,
989-595,,Igeldo Pasealekua 72,43.313948,-2.00986,1.0,,0,,,,0,,
989-353,,AÃ±orga Txiki I,43.289436,-1.998264,1.0,,0,,,,0,,
989-232,,Katalina Eleizegi 48,43.303169,-1.987152,1.0,,0,,,,0,,
989-112,,Herrera 20,43.31943,-1.936516,1.0,,0,,,,0,,
989-596,,Andoain 17,43.30054,-1.991314,1.0,,0,,,,0,,
989-354,,AÃ±orga I,43.285132,-2.000356,1.0,,0,,,,0,,
989-233,,Sierra Aralar,43.31091,-1.965802,1.0,,0,,,,0,,
989-475,,Nazaret,43.320094,-1.971714,1.0,,0,,,,0,,
989-113,,Herrera 42,43.319861,-1.933487,1.0,,0,,,,0,,
989-597,,Pagola,43.299919,-1.99337,1.0,,0,,,,0,,
989-355,,Karmengo Ama,43.280803,-2.004753,1.0,,0,,,,0,,
989-234,,Alto Errondo 107,43.3009,-1.987153,1.0,,0,,,,0,,
989-476,,Euskadi Etorbidea-Azoka,43.322823,-1.933435,1.0,,0,,,,0,,
989-114,,Erroteta Behekoa,43.318537,-1.931488,1.0,,0,,,,0,,
989-356,,Errotazar-Amasorrain,43.280048,-2.007033,1.0,,0,,,,0,,
989-235,,Alto Errondo 91,43.300938,-1.984341,1.0,,0,,,,0,,
989-477,,Ricardo Arrillaga 6,43.323744,-1.929842,1.0,,0,,,,0,,
989-598,,Ilunbe,43.297149,-1.968489,1.0,,0,,,,0,,
989-115,,Santa Barbara,43.317517,-1.930297,1.0,,0,,,,0,,
989-599,,Arzak Enea Ii,43.283154,-2.001757,1.0,,0,,,,0,,
989-236,,Alto Errondo 55,43.302025,-1.983103,1.0,,0,,,,0,,
989-478,,Gran Sol 3,43.324563,-1.929828,1.0,,0,,,,0,,
989-357,,CaserÃ­o Parada,43.320921,-1.948774,1.0,,0,,,,0,,
989-116,,Nerecan,43.31668,-1.934147,1.0,,0,,,,0,,
989-358,,Irubide,43.28027,-2.016988,1.0,,0,,,,0,,
989-237,,Alto Errondo 27,43.30091,-1.980199,1.0,,0,,,,0,,
989-479,,Borda Enea 2,43.325441,-1.932168,1.0,,0,,,,0,,
989-117,,San Martzial,43.314118,-1.93466,1.0,,0,,,,0,,
989-238,,Boulevard 19,43.322042,-1.984162,1.0,,0,,,,0,,
989-359,,Caserio Parada 28,43.320017,-1.948394,1.0,,0,,,,0,,
989-239,,Zumalakarregi 10,43.314819,-2.002336,1.0,,0,,,,0,,
989-118,,Martillun,43.312844,-1.936039,1.0,,0,,,,0,,
989-119,,Larratxo 46,43.313536,-1.937877,1.0,,0,,,,0,,
989-10,,Loiola 12,43.308724,-1.966949,1.0,,0,,,,0,,
989-11,,Hipika 12,43.306735,-1.966095,1.0,,0,,,,0,,
989-13,,Felisa Martin Bravo 4,43.303949,-1.958708,1.0,,0,,,,0,,
989-14,,Rotonda PolÃ­gono 27,43.301947,-1.952454,1.0,,0,,,,0,,
989-15,,Renfe Martutene,43.299018,-1.956129,1.0,,0,,,,0,,
989-16,,Ibai Alde,43.295338,-1.954478,1.0,,0,,,,0,,
989-17,,Easo 19,43.317179,-1.984009,1.0,,0,,,,0,,
989-18,,Larrun Mendi,43.29446,-1.953963,1.0,,0,,,,0,,
989-19,,Martutene 53,43.299152,-1.955991,1.0,,0,,,,0,,
989-480,,Oiartzun 8,43.324636,-1.934674,1.0,,0,,,,0,,
989-360,,Rotonda Belartza,43.280931,-2.010125,1.0,,0,,,,0,,
989-481,,Ulia 22,43.325572,-1.937593,1.0,,0,,,,0,,
989-240,,Antig Anbul,43.313464,-2.004997,1.0,,0,,,,0,,
989-361,,Belartza,43.281074,-2.015225,1.0,,0,,,,0,,
989-241,,Majisteritza Tol 14,43.311481,-2.008864,1.0,,0,,,,0,,
989-120,,Larratxo I,43.312217,-1.939404,1.0,,0,,,,0,,
989-362,,Errekalde,43.278482,-2.007083,1.0,,0,,,,0,,
989-121,,Bianka,43.313373,-1.937781,1.0,,0,,,,0,,
989-242,,Unibertsitatea Elhuyar,43.308347,-2.010888,1.0,,0,,,,0,,
989-363,,RÃ­o Deba Ibaia 25,43.316083,-1.970277,1.0,,0,,,,0,,
989-122,,Lauaizeta 33,43.313021,-1.935777,1.0,,0,,,,0,,
989-364,,AÃ±orga Ii,43.285609,-1.999338,1.0,,0,,,,0,,
989-243,,Elhuyar Plaza,43.308138,-2.010682,1.0,,0,,,,0,,
989-123,,Altza 55,43.314125,-1.934438,1.0,,0,,,,0,,
989-365,,AÃ±orga Txiki Ii,43.289207,-1.997886,1.0,,0,,,,0,,
989-244,,Berio 22,43.306904,-2.015893,1.0,,0,,,,0,,
989-124,,Larratxo 94,43.316515,-1.933854,1.0,,0,,,,0,,
989-245,,Berio 19,43.307147,-2.014792,1.0,,0,,,,0,,
989-487,,Jai Alai 8,43.320673,-1.968029,1.0,,0,,,,0,,
989-125,,Arri Berri,43.317878,-1.92944,1.0,,0,,,,0,,
989-246,,Aspace,43.305274,-2.016869,1.0,,0,,,,0,,
989-367,,Otxoki,43.31087,-1.954434,1.0,,0,,,,0,,
989-488,,Aldapabide 14,43.320244,-1.967334,1.0,,0,,,,0,,
989-126,,Arria Parkea,43.318588,-1.931129,1.0,,0,,,,0,,
989-368,,Baratzategi 2,43.313902,-1.959056,1.0,,0,,,,0,,
989-247,,Berio 45,43.305471,-2.016791,1.0,,0,,,,0,,
989-489,,Aldakonea 69,43.319475,-1.967951,1.0,,0,,,,0,,
989-369,,Zarategi 71,43.316321,-1.95381,1.0,,0,,,,0,,
989-127,,Pikabea,43.319225,-1.933856,1.0,,0,,,,0,,
989-248,,Berio 78,43.303414,-2.015246,1.0,,0,,,,0,,
989-128,,Renfe Herrera,43.319379,-1.936862,1.0,,0,,,,0,,
989-249,,Portuetxe 2,43.303149,-2.008593,1.0,,0,,,,0,,
989-129,,Herrera,43.319868,-1.939049,1.0,,0,,,,0,,
989-20,,Kartzela,43.302063,-1.95731,1.0,,0,,,,0,,
989-21,,Antzieta 31,43.30376,-1.960696,1.0,,0,,,,0,,
989-22,,Txomin Enea,43.304757,-1.963416,1.0,,0,,,,0,,
989-23,,Patxillardegi,43.308486,-1.966534,1.0,,0,,,,0,,
989-24,,Loiola-Topo,43.31036,-1.967637,1.0,,0,,,,0,,
989-25,,Zurriola,43.325133,-1.975329,1.0,,0,,,,0,,
989-26,,Madrid 19,43.303443,-1.975447,1.0,,0,,,,0,,
989-27,,Madrid 5,43.305105,-1.977108,1.0,,0,,,,0,,
989-28,,Sanchosabio 35,43.308215,-1.979485,1.0,,0,,,,0,,
989-29,,Sanchosabio11,43.310371,-1.979881,1.0,,0,,,,0,,
989-490,,Aldakonea-Alai Ondo,43.319446,-1.969666,1.0,,0,,,,0,,
989-491,,Konkorrenea-Parrokia,43.319207,-1.970212,1.0,,0,,,,0,,
989-370,,Caserio Parada 70,43.320174,-1.945802,1.0,,0,,,,0,,
989-250,,Portuetxe 9,43.303076,-2.008409,1.0,,0,,,,0,,
989-371,,Berio 91,43.303336,-2.011401,1.0,,0,,,,0,,
989-492,,Konkorrenea 23,43.318906,-1.971697,1.0,,0,,,,0,,
989-130,,Gaiztarro,43.320784,-1.943633,1.0,,0,,,,0,,
989-251,,Portuetxe 10,43.302046,-2.010152,1.0,,0,,,,0,,
989-493,,Aldakonea Zuhaizti,43.320806,-1.973712,1.0,,0,,,,0,,
989-494,,Euskadi Plaza,43.321134,-1.977222,1.0,,0,,,,0,,
989-131,,Mirakruz Gaina/Alto Miracruz,43.321402,-1.950196,1.0,,0,,,,0,,
989-373,,Berio 118,43.303217,-2.011218,1.0,,0,,,,0,,
989-252,,Portuetxe 21,43.301911,-2.010093,1.0,,0,,,,0,,
989-495,,Askatasuna19,43.319766,-1.981302,1.0,,0,,,,0,,
989-132,,Ulia,43.321505,-1.953475,1.0,,0,,,,0,,
989-374,,Polloe,43.318459,-1.965119,1.0,,0,,,,0,,
989-253,,Portuetxe 18,43.30206,-2.012827,1.0,,0,,,,0,,
989-133,,Toki Eder,43.321782,-1.959229,1.0,,0,,,,0,,
989-375,,Aitzgorri,43.308951,-2.003714,1.0,,0,,,,0,,
989-496,,Errondo-Morlans,43.307786,-1.981897,1.0,,0,,,,0,,
989-254,,Portuetxe 35,43.301969,-2.012619,1.0,,0,,,,0,,
989-134,,Jesuitak,43.323306,-1.967368,1.0,,0,,,,0,,
989-497,,Alto Errondo 49,43.301949,-1.983683,1.0,,0,,,,0,,
989-376,,Baratzategi 3,43.314072,-1.958917,1.0,,0,,,,0,,
989-255,,Errotazar,43.301487,-2.016264,1.0,,0,,,,0,,
989-135,,Mariaren Bihotza,43.325939,-1.970789,1.0,,0,,,,0,,
989-498,,Parking Loiola,43.311455,-1.969307,1.0,,0,,,,0,,
989-377,,Otxoki Parkea,43.310718,-1.954511,1.0,,0,,,,0,,
989-256,,Portuetxe 51,43.30137,-2.016241,1.0,,0,,,,0,,
989-136,,Kursaal,43.324759,-1.976803,1.0,,0,,,,0,,
989-499,,Ubarburu 14,43.302477,-1.949363,1.0,,0,,,,0,,
989-257,,Igara,43.301621,-2.021465,1.0,,0,,,,0,,
989-378,,Aldapabide 5,43.320973,-1.967321,1.0,,0,,,,0,,
989-137,,Escalerillas,43.321243,-1.93107,1.0,,0,,,,0,,
989-258,,Berio 73,43.302894,-2.01449,1.0,,0,,,,0,,
989-138,,Puerto Pasajes Escalerillas,43.321356,-1.931537,1.0,,0,,,,0,,
989-259,,Berio 63,43.303687,-2.015624,1.0,,0,,,,0,,
989-139,,Casares 57,43.321147,-1.923648,1.0,,0,,,,0,,
989-30,,Easo Plaza,43.31378,-1.981587,1.0,,0,,,,0,,
989-32,,Okendo 11,43.320648,-1.980313,1.0,,0,,,,0,,
989-34,,Boulevard 17,43.322148,-1.983914,1.0,,0,,,,0,,
989-35,,Urbieta 20,43.317269,-1.983021,1.0,,0,,,,0,,
989-36,,Zubieta-San MartÃ­n,43.315497,-1.987293,1.0,,0,,,,0,,
989-37,,Okendo 5,43.320911,-1.980481,1.0,,0,,,,0,,
989-38,,Loiola Parking Ii,43.311248,-1.969274,1.0,,0,,,,0,,
989-39,,Zubieta Plaza,43.315748,-1.987214,1.0,,0,,,,0,,
989-380,,Katalina Eleizegi 13,43.304723,-1.987829,1.0,,0,,,,0,,
989-260,,Begiristain I,43.299975,-1.968293,1.0,,0,,,,0,,
989-140,,Buenavista Casares,43.320957,-1.92259,1.0,,0,,,,0,,
989-261,,Begiristain Ii,43.300917,-1.967944,1.0,,0,,,,0,,
989-141,,Casares 69,43.32017,-1.92602,1.0,,0,,,,0,,
989-262,,Lorearte,43.295971,-1.96666,1.0,,0,,,,0,,
989-383,,Molinao Plaza I,43.312595,-1.920999,1.0,,0,,,,0,,
989-142,,Darieta,43.320357,-1.925857,1.0,,0,,,,0,,
989-263,,Txiskuene,43.296167,-1.966434,1.0,,0,,,,0,,
989-143,,Casares 42,43.319738,-1.929937,1.0,,0,,,,0,,
989-264,,Donostiako Ospitalea I,43.293565,-1.968488,1.0,,0,,,,0,,
989-144,,Oleta,43.319707,-1.929519,1.0,,0,,,,0,,
989-265,,Donostiako Ospitalea Ii,43.293155,-1.968951,1.0,,0,,,,0,,
989-145,,Arrizar,43.318439,-1.928764,1.0,,0,,,,0,,
989-266,,Ospitalea/Hospital I,43.29308,-1.970653,1.0,,0,,,,0,,
989-146,,Aitz Gain,43.31811,-1.933012,1.0,,0,,,,0,,
989-267,,Ospitalea/Hospital Ii,43.292842,-1.970226,1.0,,0,,,,0,,
989-147,,Txirrita 54,43.317492,-1.93724,1.0,,0,,,,0,,
989-268,,Onkologikoa,43.291554,-1.974094,1.0,,0,,,,0,,
989-269,,Avda Zarauz 122,43.302763,-2.003446,1.0,,0,,,,0,,
989-148,,Txirrita 21,43.315475,-1.939212,1.0,,0,,,,0,,
989-149,,Txirrita 13,43.314059,-1.938977,1.0,,0,,,,0,,
989-40,,Ondarreta,43.315126,-2.000346,1.0,,0,,,,0,,
989-41,,Esklabak,43.314453,-2.002687,1.0,,0,,,,0,,
989-42,,Zumalaka.21,43.313452,-2.00464,1.0,,0,,,,0,,
989-43,,Majisteritza,43.311699,-2.008084,1.0,,0,,,,0,,
989-44,,Unibertsitatea Tol.77,43.307535,-2.008645,1.0,,0,,,,0,,
989-45,,Tolosa 111,43.305238,-2.006512,1.0,,0,,,,0,,
989-46,,Amerika Plaza,43.302351,-2.003699,1.0,,0,,,,0,,
989-47,,Errotaburu 5,43.301037,-2.003807,1.0,,0,,,,0,,
989-48,,Zuatzu,43.297945,-2.007519,1.0,,0,,,,0,,
989-49,,Errotaburu 6,43.300854,-2.004475,1.0,,0,,,,0,,
989-270,,Onkologikoa Ii,43.291674,-1.973414,1.0,,0,,,,0,,
989-150,,Pinudi/ Pinares,43.321889,-1.975001,1.0,,0,,,,0,,
989-271,,MiramÃ³n,43.290114,-1.983252,1.0,,0,,,,0,,
989-151,,Zuatzu-Urola,43.296173,-2.00984,1.0,,0,,,,0,,
989-273,,Mikeleteak 4,43.313961,-2.00002,1.0,,0,,,,0,,
989-394,,Etxadi Parkea,43.301091,-1.988456,1.0,,0,,,,0,,
989-152,,F. Sasiain,43.321687,-1.961648,1.0,,0,,,,0,,
989-274,,Mikeleteak 1,43.313753,-1.999863,1.0,,0,,,,0,,
989-395,,Larratxo,43.312035,-1.939111,1.0,,0,,,,0,,
989-153,,Mons 36,43.316501,-1.955768,1.0,,0,,,,0,,
989-275,,Portuene 2,43.310646,-1.998779,1.0,,0,,,,0,,
989-154,,Zarategi 80,43.315949,-1.954421,1.0,,0,,,,0,,
989-276,,Jauregia/Palacio,43.310809,-1.998875,1.0,,0,,,,0,,
989-155,,Txara I,43.314044,-1.956858,1.0,,0,,,,0,,
989-277,,Unibertsitatea Tol.70 I,43.307912,-2.009576,1.0,,0,,,,0,,
989-156,,Gipuzkoa Plaza,43.321483,-1.981976,1.0,,0,,,,0,,
989-278,,Tolosa 112,43.305016,-2.006861,1.0,,0,,,,0,,
989-157,,Askatasuna 7,43.320101,-1.980458,1.0,,0,,,,0,,
989-399,,Barcelona 35,43.311048,-1.972015,1.0,,0,,,,0,,
989-158,,Elosegi 102,43.321165,-1.944983,1.0,,0,,,,0,,
989-279,,Infierno,43.298887,-2.00092,1.0,,0,,,,0,,
989-159,,Elosegi 283,43.321346,-1.945042,1.0,,0,,,,0,,
989-50,,Tolosa 138,43.302336,-2.004155,1.0,,0,,,,0,,
989-51,,Zarautz 90,43.30527,-2.004921,1.0,,0,,,,0,,
989-52,,ResurrecciÃ³n MÂª de Azkue 32,43.308256,-2.007684,1.0,,0,,,,0,,
989-53,,R.M. Azkue,43.31059,-2.007868,1.0,,0,,,,0,,
989-54,,Benta Berri,43.312319,-2.004831,1.0,,0,,,,0,,
989-55,,Matia,43.314228,-2.001655,1.0,,0,,,,0,,
989-56,,Boulevard 15,43.322227,-1.983666,1.0,,0,,,,0,,
989-57,,Iparragirre 8,43.322388,-1.975486,1.0,,0,,,,0,,
989-58,,Zubiaurre 64,43.32004,-1.953845,1.0,,0,,,,0,,
989-59,,Anbulatorio Txomin Enea,43.305055,-1.962511,1.0,,0,,,,0,,
989-160,,Juan Xxiii 2,43.322237,-1.942042,1.0,,0,,,,0,,
989-281,,Ibaeta - Tolosa,43.303766,-2.007066,1.0,,0,,,,0,,
989-161,,Juan Xxiii,43.322031,-1.942206,1.0,,0,,,,0,,
989-162,,Bidebietako Anbulatorioa,43.323346,-1.94032,1.0,,0,,,,0,,
989-163,,Julio Urkixo 38,43.323674,-1.941696,1.0,,0,,,,0,,
989-284,,Barcelona 15,43.309174,-1.971923,1.0,,0,,,,0,,
989-164,,Serapio Mujika 29,43.32309,-1.94569,1.0,,0,,,,0,,
989-285,,Urgull-Cementerio Ingleses Ii,43.325302,-1.990312,1.0,,0,,,,0,,
989-286,,Matigotxotegi,43.318391,-1.963554,1.0,,0,,,,0,,
989-165,,Ategorrieta 65,43.321935,-1.96215,1.0,,0,,,,0,,
989-166,,Ategorrieta 41,43.322143,-1.967203,1.0,,0,,,,0,,
989-287,,Errekalde Ii,43.277769,-2.009991,1.0,,0,,,,0,,
989-288,,Virgen Carmen 3,43.31655,-1.972058,1.0,,0,,,,0,,
989-167,,Satrustegi,43.315623,-2.001632,1.0,,0,,,,0,,
989-168,,Satrustegi Ii,43.316698,-2.00508,1.0,,0,,,,0,,
989-289,,Igeldo 25,43.314827,-2.007404,1.0,,0,,,,0,,
989-169,,Funikularea,43.319131,-2.006323,1.0,,0,,,,0,,
989-60,,Nafarroa 34,43.323837,-1.968333,1.0,,0,,,,0,,
989-61,,ArbÃ³s Musikaria/M. ArbÃ³s Z.10,43.321262,-1.965392,1.0,,0,,,,0,,
989-62,,ArbÃ³s Musikaria/Maestro ArbÃ³s,43.321204,-1.964974,1.0,,0,,,,0,,
989-63,,Renfe / Zubiaurre 27,43.32025,-1.961068,1.0,,0,,,,0,,
989-64,,Renfe Ategorrieta,43.320315,-1.960327,1.0,,0,,,,0,,
989-65,,Zarategi 8,43.318524,-1.958434,1.0,,0,,,,0,,
989-66,,Gaztelu,43.318352,-1.956291,1.0,,0,,,,0,,
989-67,,Lafont,43.317626,-1.953689,1.0,,0,,,,0,,
989-68,,Basotxiki,43.317164,-1.951416,1.0,,0,,,,0,,
989-69,,Julimasene,43.317376,-1.947083,1.0,,0,,,,0,,
989-290,,Molinao bidea 64,43.31327,-1.92296,1.0,,0,,,,0,,
989-170,,La Sirena,43.314632,-2.007728,1.0,,0,,,,0,,
989-291,,Londaitz,43.314022,-1.989537,1.0,,0,,,,0,,
989-171,,Igeldo 81,43.314708,-2.0124,1.0,,0,,,,0,,
989-292,,La Cumbre,43.310617,-1.990444,1.0,,0,,,,0,,
989-172,,Kristobal Balenziaga 2,43.318444,-2.016459,1.0,,0,,,,0,,
989-293,,Munto Alde,43.308256,-1.992197,1.0,,0,,,,0,,
989-173,,Tximistarri,43.318314,-2.02021,1.0,,0,,,,0,,
989-294,,Munto,43.307046,-1.992871,1.0,,0,,,,0,,
989-174,,Kristobal Balenziaga 42,43.315873,-2.023246,1.0,,0,,,,0,,
989-295,,Aiteko Jauregia/Palacio Aiete,43.304385,-1.992372,1.0,,0,,,,0,,
989-175,,Amezti 2,43.314305,-2.027414,1.0,,0,,,,0,,
989-296,,Bera Bera-Etxadi,43.302738,-1.99145,1.0,,0,,,,0,,
989-176,,Kamio Cb.74,43.312537,-2.030155,1.0,,0,,,,0,,
989-297,,Easo 27,43.31659,-1.983587,1.0,,0,,,,0,,
989-298,,Miraconcha,43.314335,-1.992319,1.0,,0,,,,0,,
989-177,,Kristobal Balenziaga 96,43.310228,-2.033978,1.0,,0,,,,0,,
989-299,,Miramar jauregi/Palacio Mirama,43.314297,-1.996179,1.0,,0,,,,0,,
989-178,,Igeldo Herria,43.308496,-2.037926,1.0,,0,,,,0,,
989-179,,Meteorologikoa Po.44,43.306299,-2.041043,1.0,,0,,,,0,,
989-70,,Zubiaurre 117,43.318444,-1.948705,1.0,,0,,,,0,,
989-71,,Zubiaurre 70,43.319773,-1.951161,1.0,,0,,,,0,,
989-72,,Zabaltoki,43.320106,-1.954189,1.0,,0,,,,0,,
989-73,,Zubiaurre 39,43.320229,-1.957788,1.0,,0,,,,0,,
989-74,,Ategorrieta 31,43.322213,-1.967991,1.0,,0,,,,0,,
989-75,,Galtzara Nagusia/ Gran VÃ­a 21,43.323763,-1.973132,1.0,,0,,,,0,,
989-76,,ColÃ³n 17,43.323167,-1.976941,1.0,,0,,,,0,,
989-77,,Askatasuna/Libertad 6,43.3205,-1.979822,1.0,,0,,,,0,,
989-78,,Elosegi 22,43.321547,-1.957149,1.0,,0,,,,0,,
989-79,,Boulevard 13,43.322315,-1.983418,1.0,,0,,,,0,,
989-180,,Camping,43.305337,-2.045571,1.0,,0,,,,0,,
989-181,,Meteorologikoa Po.47,43.306269,-2.040797,1.0,,0,,,,0,,
989-182,,Igeldo Herria Cb.105,43.308954,-2.035589,1.0,,0,,,,0,,
989-183,,Kristobal Balenziaga 93,43.3102,-2.033867,1.0,,0,,,,0,,
989-184,,Kamio,43.31235,-2.030393,1.0,,0,,,,0,,
989-185,,Amezti,43.314286,-2.027291,1.0,,0,,,,0,,
989-186,,Kristobal Balenziaga 42 Ii,43.315649,-2.023373,1.0,,0,,,,0,,
989-187,,Tximistarri Cb.23,43.318259,-2.0201,1.0,,0,,,,0,,
989-188,,Kristobal Balenziaga I,43.317938,-2.016282,1.0,,0,,,,0,,
989-189,,Igeldo 57,43.314292,-2.012247,1.0,,0,,,,0,,
989-80,,Askatasuna/ Libertad 15,43.319845,-1.981079,1.0,,0,,,,0,,
989-81,,Epaitegiak/Juzgados,43.319785,-1.974408,1.0,,0,,,,0,,
989-82,,Tabakalera,43.317305,-1.974968,1.0,,0,,,,0,,
989-83,,Egia 24,43.316337,-1.972443,1.0,,0,,,,0,,
989-84,,Ametzagaina 14,43.316375,-1.970655,1.0,,0,,,,0,,
989-85,,MarÃ­a Reina,43.317584,-1.967909,1.0,,0,,,,0,,
989-86,,Polloe A.58,43.318142,-1.965951,1.0,,0,,,,0,,
989-87,,Tolaregoia,43.315608,-1.964502,1.0,,0,,,,0,,
989-88,,Beharko,43.31371,-1.960748,1.0,,0,,,,0,,
989-89,,Galizia 18,43.313795,-1.958207,1.0,,0,,,,0,,
989-190,,IruÃ±a,43.314435,-2.004772,1.0,,0,,,,0,,
989-191,,Zuatzu-UlÃ­a,43.29762,-2.007499,1.0,,0,,,,0,,
989-192,,G.VÃ­a-G.Nagusia 27,43.32348,-1.972767,1.0,,0,,,,0,,
989-193,,Estaciones Renfe Bus Geltokiak,43.317963,-1.977028,1.0,,0,,,,0,,
989-194,,Bilbo/Bilbao,43.317205,-1.979902,1.0,,0,,,,0,,
989-195,,Ehunurteurrena/Centenario,43.312626,-1.980386,1.0,,0,,,,0,,
989-198,,Madrid 10,43.304745,-1.977139,1.0,,0,,,,0,,
989-199,,Anoeta,43.302792,-1.975187,1.0,,0,,,,0,,
989-90,,Galizia 28,43.312502,-1.95559,1.0,,0,,,,0,,
989-91,,Bustintxulo,43.311133,-1.952666,1.0,,0,,,,0,,
989-92,,Baratzategi 21,43.312626,-1.952456,1.0,,0,,,,0,,
989-93,,Txara Ii,43.314034,-1.95581,1.0,,0,,,,0,,
989-94,,Elosegi 43,43.321661,-1.95679,1.0,,0,,,,0,,
989-95,,Mons 77,43.316539,-1.955989,1.0,,0,,,,0,,
989-96,,Dbus Kotxerak,43.318474,-1.961851,1.0,,0,,,,0,,
989-97,,Virgen del Carmen 65,43.318905,-1.966592,1.0,,0,,,,0,,
989-98,,Virgen Carmen 43,43.317908,-1.968915,1.0,,0,,,,0,,
989-99,,Egia 17,43.316235,-1.972075,1.0,,0,,,,0,,
989-904,,Errondo-Centenario,43.31157,-1.981131,1.0,,0,,,,0,,
989-905,,Zuatzu Ii,43.298608,-2.005116,1.0,,0,,,,0,,
989-906,,Markotegi Parkea,43.291988,-2.003831,1.0,,0,,,,0,,
101114-118,,Amorebieta,43.218118,-2.730429,15.0,,0,,,,0,,
101114-4351,,Magdalena,43.171626,-2.632974,11.0,,0,,,,0,,
101114-2887,,Matiena - San Blas (dir Donostia),43.169491,-2.608234,11.0,,0,,,,0,,
101114-512,,San Andres,43.169887,-2.549389,11.0,,0,,,,0,,
101114-1553,,"Bizkaia Etorbidea, 11",43.185724,-2.50336,8.0,,0,,,,0,,
101114-6025,,"Gipuzkoa Etorbidea, 56",43.180516,-2.498407,8.0,,0,,,,0,,
101114-6029,,Unibertsitatea,43.178994,-2.490261,8.0,,0,,,,0,,
101114-997,,Otaola,43.181475,-2.483141,8.0,,0,,,,0,,
101114-850,,Unzaga,43.184004,-2.473054,8.0,,0,,,,0,,
101114-999,,Bidebarrieta,43.18564,-2.464598,8.0,,0,,,,0,,
101114-4417,,Urazandi,43.216303,-2.413642,8.0,,0,,,,0,,
101114-610,,IÃ±urritza,43.282929,-2.160891,3.0,,0,,,,0,,
101114-203,,Tolosa Hiribidea 77 - Unibertsitateak,43.307182,-2.008416,1.0,,0,,,,0,,
101114-2862,,Donostiako Autobus Geltokia,43.316563,-1.977533,1.0,,0,,,,0,,
101114-3943,,Miramon Pasealekua - Poliklinika I,43.29059,-1.980088,1.0,,0,,,,0,,
101114-1781,,Begiristain Doktorea 121 - Onkologikoa,43.291657,-1.973537,1.0,,0,,,,0,,
101114-350,,Begiristain Doktorea 115 - Ospitalea,43.292791,-1.970473,1.0,,0,,,,0,,
101114-260,,Antso Jakitunaren Hiribidea 33,43.308197,-1.97951,1.0,,0,,,,0,,
101114-2781,,"Askatasunaren Etorb./avda. De La Libertad, 34",43.319313,-1.982999,1.0,,0,,,,0,,
101114-420,,Zumalakarregi Etorb. 14,43.314481,-2.002872,1.0,,0,,,,0,,
101114-346,,Tolosa Hiribidea - Magisteritza,43.311295,-2.00925,1.0,,0,,,,0,,
101114-826,,Unibertsitatea,43.306859,-2.008607,1.0,,0,,,,0,,
101114-356,,Tolosa Hiribidea 112,43.304908,-2.006814,1.0,,0,,,,0,,
101114-6112,,Anibarko Portua 2,43.277481,-2.116697,3.0,,0,,,,0,,
101114-439,,"Orio-aita Lertxundi, 28",43.276636,-2.125053,3.0,,0,,,,0,,
101114-440,,Alto Orio 2,43.273086,-2.137747,3.0,,0,,,,0,,
101114-6113,,Talaimendi 2,43.281939,-2.150095,3.0,,0,,,,0,,
101114-422,,Nafarroa-iÃ±urritza,43.285816,-2.162897,3.0,,0,,,,0,,
101114-414,,Nafarroa Kalea- Gurutze Gorria,43.286069,-2.169192,3.0,,0,,,,0,,
101114-423,,Bixkonde 15- Erdigunea,43.286805,-2.175197,3.0,,0,,,,0,,
101114-1740,,Getaria Frontoia,43.302695,-2.203931,3.0,,0,,,,0,,
101114-1328,,Kaminero Etxea,43.310334,-2.228012,3.0,,0,,,,0,,
101114-6058,,Patxita Etxezarreta,43.294487,-2.256701,3.0,,0,,,,0,,
101114-1060,,Zumaia,43.295752,-2.257487,3.0,,0,,,,0,,
101114-4315,,Txankakoa,43.215573,-2.417035,8.0,,0,,,,0,,
101114-4316,,Urkizu,43.186929,-2.462962,8.0,,0,,,,0,,
101114-1124,,"San Juan Kalea, 07",43.185244,-2.472391,8.0,,0,,,,0,,
101114-7008,,Zumaiako Geltokia,43.291768,-2.251237,3.0,,0,,,,0,,
101114-6116,,Oikiako Bidegurutzea 2,43.282494,-2.232296,3.0,,0,,,,0,,
101114-4044,,Etxabe,43.265825,-2.234859,3.0,,0,,,,0,,
101114-4043,,Zubialde,43.260148,-2.236815,3.0,,0,,,,0,,
101114-5055,,Herriko Plaza,43.255654,-2.236711,3.0,,0,,,,0,,
101114-1736,,Olea Erreka,43.172059,-2.409329,8.0,,0,,,,0,,
101114-1552,,Zubi Nagusia,43.174092,-2.414132,8.0,,0,,,,0,,
101114-1554,,Baltegieta,43.177043,-2.415445,8.0,,0,,,,0,,
101114-4440,,Maltzaga,43.192956,-2.43736,8.0,,0,,,,0,,
101114-1003,,Zaturio Baserria,43.201104,-2.431672,8.0,,0,,,,0,,
101114-1005,,Sigma Olaso Hilerria-cementerio,43.20914,-2.421626,8.0,,0,,,,0,,
101114-6122,,Barrio Sigma 2,43.212368,-2.418875,8.0,,0,,,,0,,
101114-6022,,Mupen,43.217362,-2.411133,8.0,,0,,,,0,,
101114-1007,,Puente Meliton,43.221053,-2.405815,8.0,,0,,,,0,,
101114-1008,,San Antolin,43.227798,-2.40256,8.0,,0,,,,0,,
101114-1009,,Arriaga,43.229064,-2.400122,8.0,,0,,,,0,,
101114-1010,,Altzola,43.236058,-2.399647,8.0,,0,,,,0,,
101114-1011,,Plaza Auzoa,43.247273,-2.393575,8.0,,0,,,,0,,
101114-1012,,Zubia,43.250609,-2.389353,8.0,,0,,,,0,,
101114-1116,,Mendaroko Ospitalea,43.250833,-2.385643,8.0,,0,,,,0,,
101114-981,,Zubia,43.250475,-2.389564,8.0,,0,,,,0,,
101114-6040,,Santuaran,43.254659,-2.387132,8.0,,0,,,,0,,
101114-6579,,Sasiola,43.29071,-2.363621,8.0,,0,,,,0,,
101114-1737,,Artzabal,43.288691,-2.361571,8.0,,0,,,,0,,
101114-986,,Deba Salida,43.29494,-2.355132,8.0,,0,,,,0,,
101114-980,,Arzabal,43.289017,-2.361863,8.0,,0,,,,0,,
101114-1758,,Urazamendi,43.293423,-2.357503,8.0,,0,,,,0,,
101114-1117,,Mauleon,43.305616,-2.383896,8.0,,0,,,,0,,
101114-6079,,Eulogio Ulacia Plaza,43.307022,-2.387543,8.0,,0,,,,0,,
101114-6041,,Conservas La Mutrikuarra,43.308127,-2.397323,8.0,,0,,,,0,,
101114-907,,Saturraran,43.315341,-2.411371,8.0,,0,,,,0,,
101114-6043,,Ondarroa,43.322895,-2.421683,8.0,,0,,,,0,,
101114-2865,,Federico Garcia Lorca 2,43.316407,-1.977252,1.0,,0,,,,0,,
101114-205,,Tolosa Hiribidea 138,43.302238,-2.004219,1.0,,0,,,,0,,
101114-302,,AÃ±orga Hiribidea - AÃ±orga Txiki I,43.289462,-1.998215,1.0,,0,,,,0,,
101114-303,,AÃ±orga Hiribidea 36 - AÃ±orga I,43.285301,-2.000082,1.0,,0,,,,0,,
101114-359,,Errekalde Hiribidea 51 - Tren Geltokia,43.278778,-2.006906,1.0,,0,,,,0,,
101114-6052,,Urbil - Centro Comercial,43.276784,-2.025326,1.0,,0,,,,0,,
101114-6051,,Salida Urbil,43.275251,-2.027112,1.0,,0,,,,0,,
101114-430,,"Kalezar Auzoa 9, Eskailerak",43.270629,-2.045017,1.0,,0,,,,0,,
101114-450,,Usurbil Ayuntamiento,43.270376,-2.051367,1.0,,0,,,,0,,
101114-6050,,Atxegalde,43.273123,-2.053678,1.0,,0,,,,0,,
101114-449,,Galardi,43.271446,-2.06981,1.0,,0,,,,0,,
101114-433,,Aginaga Auzoa - Etxeberri,43.272795,-2.07414,1.0,,0,,,,0,,
101114-434,,Aginaga Surtidor,43.276753,-2.072514,1.0,,0,,,,0,,
101114-435,,Intxaurreta,43.279352,-2.083259,1.0,,0,,,,0,,
101114-436,,Sarikola,43.28106,-2.093007,1.0,,0,,,,0,,
101114-437,,Botaleku,43.276838,-2.097777,3.0,,0,,,,0,,
101114-438,,Oliden,43.276014,-2.110976,3.0,,0,,,,0,,
101114-6108,,Patxita Etxezarreta,43.294145,-2.255436,3.0,,0,,,,0,,
101114-1331,,Kaminero Etxea,43.309661,-2.22442,3.0,,0,,,,0,,
101114-1329,,Getaria-erdigunea,43.302688,-2.204277,3.0,,0,,,,0,,
101114-424,,Torre Luzeako Parkea 2- Erdigunea,43.286668,-2.174878,3.0,,0,,,,0,,
101114-425,,Nafarroa Kalea- Sanzenea,43.285981,-2.169489,3.0,,0,,,,0,,
101114-426,,Nafarroa 54-iÃ±urritza,43.285626,-2.161556,3.0,,0,,,,0,,
101114-6056,,Talaimendi,43.28184,-2.150097,3.0,,0,,,,0,,
101114-6044,,Zudugarai,43.272671,-2.137692,3.0,,0,,,,0,,
101114-761,,"Orio-aita Lertxundi, 25",43.276617,-2.124881,3.0,,0,,,,0,,
101114-442,,Anibarko Portua,43.277327,-2.11649,3.0,,0,,,,0,,
101114-982,,Plaza Auzoa,43.248605,-2.393488,8.0,,0,,,,0,,
101114-983,,Altzola,43.235999,-2.400275,8.0,,0,,,,0,,
101114-984,,Rodisa,43.229496,-2.399945,8.0,,0,,,,0,,
101114-985,,San Antolin,43.227926,-2.402817,8.0,,0,,,,0,,
101114-4274,,Leruntxiki,43.222524,-2.406515,8.0,,0,,,,0,,
101114-987,,Mupen,43.217533,-2.411156,8.0,,0,,,,0,,
101114-988,,Carrocerias Elgoibarresas,43.210474,-2.420087,8.0,,0,,,,0,,
101114-989,,Barrio Sigma,43.208397,-2.422606,8.0,,0,,,,0,,
101114-990,,Zaturio Baserria,43.200863,-2.432118,8.0,,0,,,,0,,
101114-991,,Maltzaga,43.193678,-2.437649,8.0,,0,,,,0,,
101114-992,,Apalategi,43.191153,-2.446151,8.0,,0,,,,0,,
101114-993,,Azitain,43.189864,-2.455331,8.0,,0,,,,0,,
101114-4441,,Errebal,43.185746,-2.467981,8.0,,0,,,,0,,
101114-6078,,Torrekua,43.18455,-2.480285,8.0,,0,,,,0,,
101114-1408,,Unibertsitatea,43.180165,-2.48816,8.0,,0,,,,0,,
101114-6125,,Avda. Gipuzkoa 23,43.179658,-2.497823,8.0,,0,,,,0,,
101114-6023,,"Gipuzkoa Etorbidea, 23",43.184506,-2.500577,8.0,,0,,,,0,,
101114-6027,,"Baldespina Markesa, 14",43.186231,-2.503885,8.0,,0,,,,0,,
101114-1756,,Polideport,43.187005,-2.507854,8.0,,0,,,,0,,
101114-6126,,T.v.a. 2,43.185225,-2.515067,8.0,,0,,,,0,,
101114-6127,,Ges 2,43.185938,-2.519516,8.0,,0,,,,0,,
101114-6128,,Urtiaga 2,43.187205,-2.52321,8.0,,0,,,,0,,
101114-6129,,Mallabarrena 2,43.187717,-2.52963,8.0,,0,,,,0,,
101114-908,,Saturraran,43.314972,-2.411375,8.0,,0,,,,0,,
101114-6123,,Conservas La Mutrikuarra 2,43.308017,-2.39683,8.0,,0,,,,0,,
101114-909,,Eulogio Ulacia Plaza,43.30681,-2.388273,8.0,,0,,,,0,,
101114-910,,Mauleon,43.305481,-2.383897,8.0,,0,,,,0,,
101114-6137,,Urazamendi 2,43.294393,-2.357061,8.0,,0,,,,0,,
101114-6124,,Santuaran 2,43.254659,-2.387268,8.0,,0,,,,0,,
101114-4442,,Malzaga,43.192803,-2.437312,8.0,,0,,,,0,,
101114-1455,,Sagar-erreka,43.177817,-2.420679,8.0,,0,,,,0,,
101114-6047,,Ezozia,43.177583,-2.41544,8.0,,0,,,,0,,
101114-4459,,EstaziÃ±o,43.174901,-2.412168,8.0,,0,,,,0,,
101114-2446,,Unzaga Lateral,43.184476,-2.473751,8.0,,0,,,,0,,
101114-4042,,Zubialde,43.260255,-2.236752,3.0,,0,,,,0,,
101114-4045,,Etxabe,43.265872,-2.235018,3.0,,0,,,,0,,
101114-6119,,Oikiako Bidegurutzea 2,43.282584,-2.232356,3.0,,0,,,,0,,
101114-1118,,Zumaiako Geltokia,43.29193,-2.25121,3.0,,0,,,,0,,
101114-443,,Oliden,43.275981,-2.109066,3.0,,0,,,,0,,
101114-444,,Botaleku,43.277142,-2.097489,3.0,,0,,,,0,,
101114-454,,Sarikola,43.280967,-2.092675,1.0,,0,,,,0,,
101114-445,,Intxaurreta,43.27993,-2.082277,1.0,,0,,,,0,,
101114-446,,Aginaga Surtidor,43.276619,-2.072652,1.0,,0,,,,0,,
101114-447,,Aginaga Auzoa 12 - Errazti,43.272376,-2.07454,1.0,,0,,,,0,,
101114-448,,"Aginaga Auzoa, 5 - Biona",43.271277,-2.070145,1.0,,0,,,,0,,
101114-431,,Usurbil Rotonda,43.271654,-2.053442,1.0,,0,,,,0,,
101114-451,,Ugalde Industrialdea - Eskailerak,43.270734,-2.044658,1.0,,0,,,,0,,
101114-1762,,Ent. Urbil,43.27374,-2.028381,1.0,,0,,,,0,,
101114-6110,,Urbil - Centro Comercial 2,43.274935,-2.021818,1.0,,0,,,,0,,
101114-375,,Errekalde Hiribidea - Tren Geltokia,43.278508,-2.007009,1.0,,0,,,,0,,
101114-342,,AÃ±orga Hiribidea 59 - AÃ±orga Ii,43.285716,-1.999139,1.0,,0,,,,0,,
101114-343,,AÃ±orga Hiribidea - AÃ±orga Txiki Ii,43.289485,-1.997733,1.0,,0,,,,0,,
101114-202,,Tolosa Hiribidea - Amerika Plaza,43.302351,-2.003736,1.0,,0,,,,0,,
101114-377,,Tolosa Hiribidea - Lorea,43.305021,-2.006343,1.0,,0,,,,0,,
101114-4038,,Tolosa Hiribidea 13 - Magisteritza,43.312275,-2.00699,1.0,,0,,,,0,,
101114-814,,Zumalakarregi Hirib. 11,43.314479,-2.002638,1.0,,0,,,,0,,
101114-4779,,Zubieta Plaza,43.315767,-1.987251,1.0,,0,,,,0,,
101114-4877,,"Askatasuna/libertad, 3",43.320399,-1.979614,1.0,,0,,,,0,,
101114-1048,,Aizarnazabal Plaza,43.252433,-2.235852,3.0,,0,,,,0,,
101114-4040,,Sebastopol-iraeta,43.254263,-2.259347,4.0,,0,,,,0,,
101114-1049,,Zestoa,43.238587,-2.255398,4.0,,0,,,,0,,
101114-6900,,Pagatza,43.137797,-2.492202,7.0,,0,,,,0,,
101114-6135,,Elgeta 2,43.137039,-2.487622,7.0,,0,,,,0,,
101114-6136,,Karabieta,43.148082,-2.480471,7.0,,0,,,,0,,
101114-1412,,Sostoatarren,43.182188,-2.473635,8.0,,0,,,,0,,
101114-1991,,Egogain 5,43.183985,-2.47485,8.0,,0,,,,0,,
101114-75,,Bizkaia Kalea,43.283904,-2.176161,3.0,,0,,,,0,,
101114-74,,Ibarrola,43.259536,-2.151282,3.0,,0,,,,0,,
101114-73,,Lukun,43.255221,-2.158364,3.0,,0,,,,0,,
101114-72,,Iturraran,43.249986,-2.159113,3.0,,0,,,,0,,
101114-71,,Laurgain,43.246702,-2.163223,3.0,,0,,,,0,,
101114-70,,Sarrola,43.242777,-2.166935,3.0,,0,,,,0,,
101114-69,,Arrospide,43.2392,-2.164287,3.0,,0,,,,0,,
101114-1027,,Aia,43.237412,-2.14766,3.0,,0,,,,0,,
101114-1020,,Etxenagusia,43.241228,-2.146178,3.0,,0,,,,0,,
101114-61,,Ostolaza,43.241546,-2.140557,3.0,,0,,,,0,,
101114-63,,Ilarramendi,43.232778,-2.137257,3.0,,0,,,,0,,
101114-1018,,San Pedro Bailara,43.23611,-2.123121,3.0,,0,,,,0,,
101114-66,,Errekondo,43.241041,-2.119121,3.0,,0,,,,0,,
101114-68,,MaÃ±arin-zelai,43.248747,-2.117803,3.0,,0,,,,0,,
101114-6114,,Santiago 2,43.267807,-2.119745,3.0,,0,,,,0,,
101114-4739,,Tren Geltokia,43.274006,-2.124967,3.0,,0,,,,0,,
101114-3940,,Begiristain Doktorea 218 - Onkologikoa,43.291553,-1.974081,1.0,,0,,,,0,,
101114-6024,,Avda. Gipuzkoa 16,43.183635,-2.499156,8.0,,0,,,,0,,
101114-998,,Escuela De Armeria,43.183523,-2.478152,8.0,,0,,,,0,,
101114-1000,,Azitain,43.189817,-2.454802,8.0,,0,,,,0,,
101114-1001,,Apalategi,43.191178,-2.447738,8.0,,0,,,,0,,
101114-1002,,Maltzaga,43.193614,-2.437551,8.0,,0,,,,0,,
101114-6115,,Tren Geltokia,43.273808,-2.125032,3.0,,0,,,,0,,
101114-813,,Eroski Zarautz,43.280835,-2.165245,3.0,,0,,,,0,,
101114-665,,Kiroldegia,43.280979,-2.168867,3.0,,0,,,,0,,
101114-6036,,Mallabarrena,43.187555,-2.529508,8.0,,0,,,,0,,
101114-6038,,Urtiaga,43.187269,-2.523542,8.0,,0,,,,0,,
101114-6034,,Ges,43.185784,-2.519418,8.0,,0,,,,0,,
101114-6030,,T.v.a.,43.185071,-2.514859,8.0,,0,,,,0,,
101114-6033,,"Zehar Kalea, 31",43.187099,-2.508899,8.0,,0,,,,0,,
101114-198,,Antso Jakitunaren Hiribidea 26,43.308804,-1.979845,1.0,,0,,,,0,,
101114-351,,Begiristain Doktorea - Ospitalea Ii,43.293044,-1.970568,1.0,,0,,,,0,,
101114-1411,,Ipurua,43.181851,-2.474906,8.0,,0,,,,0,,
101114-925,,Karebieta,43.148235,-2.480359,7.0,,0,,,,0,,
101114-4311,,Elgeta,43.137192,-2.487633,7.0,,0,,,,0,,
101114-4342,,Aparcamiento Arropain,43.360265,-2.50669,10.0,,0,,,,0,,
101114-4343,,Cruce Oleta .carretera Bi-3405. Direccion Ondarroa,43.34363,-2.50569,10.0,,0,,,,0,,
101114-4344,,Carretera Bi-3405.alto Milloi. Direccion Ondarroa,43.314025,-2.481834,10.0,,0,,,,0,,
101114-4345,,Carretera General. Direccion Deba,43.309138,-2.468546,10.0,,0,,,,0,,
101114-4346,,Poligono Industrial Gardotxa. DirecciÃ³n Deba,43.319018,-2.455671,10.0,,0,,,,0,,
101114-2012,,KamiÃ±aspi,43.32139,-2.432217,8.0,,0,,,,0,,
101114-911,,"Hondartza Kalea, 14-15",43.295766,-2.353188,8.0,,0,,,,0,,
101114-912,,Itziar,43.278376,-2.332384,8.0,,0,,,,0,,
101114-1062,,Narrondo,43.28497,-2.265199,3.0,,0,,,,0,,
101114-6138,,Arroabea,43.277873,-2.270658,4.0,,0,,,,0,,
101114-2165,,Mardari Auzoa,43.281661,-2.293118,8.0,,0,,,,0,,
101114-2167,,Elorriaga Auzoa Dir Deba,43.279174,-2.298668,8.0,,0,,,,0,,
101114-6121,,Itziar,43.277165,-2.330142,8.0,,0,,,,0,,
101114-1424,,Industrialdea,43.272489,-2.331068,8.0,,0,,,,0,,
101114-3338,,Mutxiarte 13,43.276494,-2.330876,8.0,,0,,,,0,,
101114-6008,,N-634 Jatetxea,43.278662,-2.330483,8.0,,0,,,,0,,
101114-1426,,Itziarko Kanpigna,43.287015,-2.339106,8.0,,0,,,,0,,
101114-903,,Itziar N-634,43.278891,-2.332686,8.0,,0,,,,0,,
101114-904,,Alameda,43.29598,-2.352742,8.0,,0,,,,0,,
101114-4337,,KamiÃ±aspi,43.321378,-2.433438,8.0,,0,,,,0,,
101114-4338,,Poligono Industrial Gardotxa. DirecciÃ³n Lekeitio,43.319387,-2.455495,10.0,,0,,,,0,,
101114-4339,,Carretera General. Direccion Lekeitio,43.309058,-2.468855,10.0,,0,,,,0,,
101114-4340,,Carretera Bi 3405. Alto Milloi. Direccion Lekeitio,43.313204,-2.481372,10.0,,0,,,,0,,
101114-4341,,Cruce Oleta. Carretera Bi-3405. Direccion Lekeitio,43.343665,-2.505467,10.0,,0,,,,0,,
101114-1425,,Itziarko Kanpigna,43.287205,-2.339387,8.0,,0,,,,0,,
101114-6120,,N-634 Jatetxea,43.277495,-2.328031,8.0,,0,,,,0,,
101114-2166,,Elorriaga Auzoa Dir Zumaia,43.279101,-2.298595,8.0,,0,,,,0,,
101114-4036,,Arroabea,43.276094,-2.272675,4.0,,0,,,,0,,
101114-6107,,Narrondo,43.284581,-2.263478,3.0,,0,,,,0,,
101114-1042,,Zestoa,43.24066,-2.257024,4.0,,0,,,,0,,
101114-1086,,Sebastopol-iraeta,43.253959,-2.259757,4.0,,0,,,,0,,
101114-1043,,Aizarnazabal,43.252264,-2.236162,3.0,,0,,,,0,,
101114-4350,,Magdalena,43.171779,-2.632961,11.0,,0,,,,0,,
101114-6007,,Itziar Centro,43.277283,-2.330251,8.0,,0,,,,0,,
101114-6032,,"Zehar Kalea, 1",43.18647,-2.504904,8.0,,0,,,,0,,
